{"type":"FeatureCollection","features":[{"type":"Feature","properties":{"NAME":"肖场村","TEL":"移动","URL":"塔站","ADDRESS1":"房山琉璃河肖场村","ADDRESS2":"","CITY":"房山","ZIP":""},"geometry":{"type":"Point","coordinates":[116.191455,39.620542]}},{"type":"Feature","properties":{"NAME":"小陶村","TEL":"移动","URL":"塔站","ADDRESS1":"北京市房山窦店镇小陶村东村东无线机房无","ADDRESS2":"","CITY":"房山","ZIP":""},"geometry":{"type":"Point","coordinates":[116.16718,39.60212]}},{"type":"Feature","properties":{"NAME":"辛庄户村","TEL":"移动","URL":"塔站","ADDRESS1":"北京市房山区青龙湖镇辛庄村东","ADDRESS2":"","CITY":"房山","ZIP":""},"geometry":{"type":"Point","coordinates":[116.16048,39.632292]}},{"type":"Feature","properties":{"NAME":"东石羊","TEL":"移动","URL":"塔站","ADDRESS1":"北京市房山良乡房山良乡镇东石羊村煤球厂煤厂工厂院内无线机房","ADDRESS2":"","CITY":"房山","ZIP":""},"geometry":{"type":"Point","coordinates":[116.16901,39.67901]}},{"type":"Feature","properties":{"NAME":"中医药大学","TEL":"移动","URL":"塔站","ADDRESS1":"房山中医药大学","ADDRESS2":"","CITY":"房山","ZIP":""},"geometry":{"type":"Point","coordinates":[116.16011,39.71303]}},{"type":"Feature","properties":{"NAME":"小营村","TEL":"移动","URL":"楼站","ADDRESS1":"房山良乡六环小营村","ADDRESS2":"","CITY":"房山","ZIP":""},"geometry":{"type":"Point","coordinates":[116.155272,39.695461]}},{"type":"Feature","properties":{"NAME":"西地村","TEL":"移动","URL":"塔站","ADDRESS1":"北京市房山区琉璃河镇西地村西北树林无","ADDRESS2":"","CITY":"房山","ZIP":""},"geometry":{"type":"Point","coordinates":[116.13107,39.62657]}},{"type":"Feature","properties":{"NAME":"刘平庄村","TEL":"移动","URL":"塔站","ADDRESS1":"北京市房山区刘平庄村村委会院内无线机房无","ADDRESS2":"","CITY":"房山","ZIP":""},"geometry":{"type":"Point","coordinates":[116.09303,39.62285]}},{"type":"Feature","properties":{"NAME":"窦店交道","TEL":"移动","URL":"塔站","ADDRESS1":"房山窦店交道","ADDRESS2":"","CITY":"房山","ZIP":""},"geometry":{"type":"Point","coordinates":[116.112207,39.641257]}},{"type":"Feature","properties":{"NAME":"刘丈村西","TEL":"移动","URL":"塔站","ADDRESS1":"北京市本部房山良乡镇刘仗村","ADDRESS2":"","CITY":"房山","ZIP":""},"geometry":{"type":"Point","coordinates":[116.107243,39.681866]}},{"type":"Feature","properties":{"NAME":"大苑村北","TEL":"移动","URL":"塔站","ADDRESS1":"房山青龙湖大苑村北","ADDRESS2":"","CITY":"房山","ZIP":""},"geometry":{"type":"Point","coordinates":[116.102918,39.769456]}},{"type":"Feature","properties":{"NAME":"小马村","TEL":"移动","URL":"塔站","ADDRESS1":"北京市本部房山青龙湖镇小马村村委会院内平房","ADDRESS2":"","CITY":"房山","ZIP":""},"geometry":{"type":"Point","coordinates":[116.08515,39.74599]}},{"type":"Feature","properties":{"NAME":"信息大学","TEL":"移动","URL":"楼站","ADDRESS1":"北京市本部房山窦店镇房山信息大学8号楼DCS","ADDRESS2":"","CITY":"房山","ZIP":""},"geometry":{"type":"Point","coordinates":[116.06318,39.68778]}},{"type":"Feature","properties":{"NAME":"兴礼村","TEL":"移动","URL":"塔站","ADDRESS1":"北京市房山区琉璃河镇兴礼村志玲养殖厂院内无线机房无","ADDRESS2":"","CITY":"房山","ZIP":""},"geometry":{"type":"Point","coordinates":[116.07478,39.59485]}},{"type":"Feature","properties":{"NAME":"周庄村","TEL":"移动","URL":"塔站","ADDRESS1":"北京市房山区琉璃河镇周庄村村委会院内无线机房无","ADDRESS2":"","CITY":"房山","ZIP":""},"geometry":{"type":"Point","coordinates":[116.02791,39.58239]}},{"type":"Feature","properties":{"NAME":"芦村农机厂","TEL":"移动","URL":"塔站","ADDRESS1":"北京市房山区窦店镇芦村村东南农机厂院内灯杆塔无","ADDRESS2":"","CITY":"房山","ZIP":""},"geometry":{"type":"Point","coordinates":[116.03276,39.63255]}},{"type":"Feature","properties":{"NAME":"瓜市村东","TEL":"移动","URL":"塔站","ADDRESS1":"房山瓜市村东","ADDRESS2":"","CITY":"房山","ZIP":""},"geometry":{"type":"Point","coordinates":[116.017023,39.689001]}},{"type":"Feature","properties":{"NAME":"北坊村东","TEL":"移动","URL":"塔站","ADDRESS1":"北京市本部房山阎村镇北坊村","ADDRESS2":"","CITY":"房山","ZIP":""},"geometry":{"type":"Point","coordinates":[116.045916,39.737573]}},{"type":"Feature","properties":{"NAME":"坨里村东南","TEL":"移动","URL":"塔站","ADDRESS1":"房山青龙湖坨里村东南","ADDRESS2":"","CITY":"房山","ZIP":""},"geometry":{"type":"Point","coordinates":[116.037302,39.771943]}},{"type":"Feature","properties":{"NAME":"顾八路","TEL":"移动","URL":"塔站","ADDRESS1":"北京山房山顾八路","ADDRESS2":"","CITY":"房山","ZIP":""},"geometry":{"type":"Point","coordinates":[116.0086,39.73399]}},{"type":"Feature","properties":{"NAME":"马各庄","TEL":"移动","URL":"楼站","ADDRESS1":"北京市房山区大石河路京周公路南物资局院内","ADDRESS2":"","CITY":"房山","ZIP":""},"geometry":{"type":"Point","coordinates":[116.00769,39.70555]}},{"type":"Feature","properties":{"NAME":"坨头村南","TEL":"移动","URL":"塔站","ADDRESS1":"北京市房山区坨头村东南侧蓝色单管塔北京市房山区坨头村东南侧","ADDRESS2":"","CITY":"房山","ZIP":""},"geometry":{"type":"Point","coordinates":[115.994238,39.652258]}},{"type":"Feature","properties":{"NAME":"李庄村北","TEL":"移动","URL":"塔站","ADDRESS1":"房山琉璃河李庄村北ZLG","ADDRESS2":"","CITY":"房山","ZIP":""},"geometry":{"type":"Point","coordinates":[115.996917,39.601755]}},{"type":"Feature","properties":{"NAME":"白庄村","TEL":"移动","URL":"塔站","ADDRESS1":"北京市房山区琉璃河镇白庄村村西侧无","ADDRESS2":"","CITY":"房山","ZIP":""},"geometry":{"type":"Point","coordinates":[116.0001,39.58303]}},{"type":"Feature","properties":{"NAME":"曹章村","TEL":"移动","URL":"塔站","ADDRESS1":"北京市房山区韩村河镇曹章村村委会3层无线机房0","ADDRESS2":"","CITY":"房山","ZIP":""},"geometry":{"type":"Point","coordinates":[115.94737,39.58341]}},{"type":"Feature","properties":{"NAME":"西营村西","TEL":"移动","URL":"塔站","ADDRESS1":"房山石楼镇京昆西营村","ADDRESS2":"","CITY":"房山","ZIP":""},"geometry":{"type":"Point","coordinates":[115.951711,39.614457]}},{"type":"Feature","properties":{"NAME":"大次洛","TEL":"移动","URL":"塔站","ADDRESS1":"北京市北京市本部房山石楼镇石楼镇石楼镇无无","ADDRESS2":"","CITY":"房山","ZIP":""},"geometry":{"type":"Point","coordinates":[115.94767,39.63055]}},{"type":"Feature","properties":{"NAME":"周口店","TEL":"移动","URL":"塔站","ADDRESS1":"北京市房山区周口店镇周口店村无线机房无","ADDRESS2":"","CITY":"房山","ZIP":""},"geometry":{"type":"Point","coordinates":[115.93358,39.68953]}},{"type":"Feature","properties":{"NAME":"七贤村","TEL":"移动","URL":"塔站","ADDRESS1":"北京市北京市本部房山韩村河镇卫生院内七贤村无无","ADDRESS2":"","CITY":"房山","ZIP":""},"geometry":{"type":"Point","coordinates":[115.92803,39.59135]}},{"type":"Feature","properties":{"NAME":"北良各庄","TEL":"移动","URL":"塔站","ADDRESS1":"房山西山庄村","ADDRESS2":"","CITY":"房山","ZIP":""},"geometry":{"type":"Point","coordinates":[115.87938,39.56219]}},{"type":"Feature","properties":{"NAME":"地质公园","TEL":"移动","URL":"塔站","ADDRESS1":"房山长沟镇地质公园博物馆西","ADDRESS2":"","CITY":"房山","ZIP":""},"geometry":{"type":"Point","coordinates":[115.867524,39.585424]}},{"type":"Feature","properties":{"NAME":"娄子水村西","TEL":"移动","URL":"塔站","ADDRESS1":"房山周口店娄子水村西ZLG","ADDRESS2":"","CITY":"房山","ZIP":""},"geometry":{"type":"Point","coordinates":[115.903444,39.666049]}},{"type":"Feature","properties":{"NAME":"孤山口村","TEL":"移动","URL":"塔站","ADDRESS1":"北京市房山区韩村河镇孤山口村村内东侧村庄无线机房无","ADDRESS2":"","CITY":"房山","ZIP":""},"geometry":{"type":"Point","coordinates":[115.86257,39.63719]}},{"type":"Feature","properties":{"NAME":"西甘池","TEL":"移动","URL":"塔站","ADDRESS1":"北京市房山区长沟镇西甘池村无","ADDRESS2":"","CITY":"房山","ZIP":""},"geometry":{"type":"Point","coordinates":[115.86204,39.60424]}},{"type":"Feature","properties":{"NAME":"石窝半壁店","TEL":"移动","URL":"塔站","ADDRESS1":"北京市房山区石窝半壁店无","ADDRESS2":"","CITY":"房山","ZIP":""},"geometry":{"type":"Point","coordinates":[115.83369,39.55176]}},{"type":"Feature","properties":{"NAME":"南辛庄","TEL":"移动","URL":"塔站","ADDRESS1":"北京市房山区南辛庄无","ADDRESS2":"","CITY":"房山","ZIP":""},"geometry":{"type":"Point","coordinates":[115.80021,39.5523]}},{"type":"Feature","properties":{"NAME":"后石门村","TEL":"移动","URL":"塔站","ADDRESS1":"北京市房山区大石窝镇后石门村卫生室院内后石门卫生室院内南侧无线机房无","ADDRESS2":"","CITY":"房山","ZIP":""},"geometry":{"type":"Point","coordinates":[115.80573,39.58553]}},{"type":"Feature","properties":{"NAME":"下营村西","TEL":"移动","URL":"塔站","ADDRESS1":"北京市房山区下营村无","ADDRESS2":"","CITY":"房山","ZIP":""},"geometry":{"type":"Point","coordinates":[115.768732,39.564661]}},{"type":"Feature","properties":{"NAME":"南尚乐","TEL":"移动","URL":"塔站","ADDRESS1":"北京市房山区大石窝镇南尚乐电信局一层电信局1层无线机房无","ADDRESS2":"","CITY":"房山","ZIP":""},"geometry":{"type":"Point","coordinates":[115.77723,39.53721]}},{"type":"Feature","properties":{"NAME":"南白岱村","TEL":"移动","URL":"塔站","ADDRESS1":"北京市房山区张坊镇南白岱村内南白岱村内村内无线机房无","ADDRESS2":"","CITY":"房山","ZIP":""},"geometry":{"type":"Point","coordinates":[115.73852,39.56245]}},{"type":"Feature","properties":{"NAME":"蔡家口村","TEL":"移动","URL":"塔站","ADDRESS1":"北京市房山区张坊镇蔡家口村无","ADDRESS2":"","CITY":"房山","ZIP":""},"geometry":{"type":"Point","coordinates":[115.75129,39.59048]}},{"type":"Feature","properties":{"NAME":"工行会议中心","TEL":"移动","URL":"楼站","ADDRESS1":"北京市房山区大石窝镇工行培训中心院内工行会议中心工行培训中心无线机房无","ADDRESS2":"","CITY":"房山","ZIP":""},"geometry":{"type":"Point","coordinates":[115.74937,39.61504]}},{"type":"Feature","properties":{"NAME":"一渡高尔夫","TEL":"移动","URL":"塔站","ADDRESS1":"北京市房山区张坊镇涞宝路一渡新新小镇高尔夫球场内无","ADDRESS2":"","CITY":"房山","ZIP":""},"geometry":{"type":"Point","coordinates":[115.69011,39.58671]}},{"type":"Feature","properties":{"NAME":"北下寺","TEL":"移动","URL":"塔站","ADDRESS1":"北京市北京市本部房山房山区周口店镇北下寺村房山区周口店镇北下寺村房山区周口店镇北下寺村房山区周口店镇北下寺村房山区周口店镇北下寺村","ADDRESS2":"","CITY":"房山","ZIP":""},"geometry":{"type":"Point","coordinates":[115.84683,39.72099]}},{"type":"Feature","properties":{"NAME":"西岳台","TEL":"移动","URL":"塔站","ADDRESS1":"北京市房山区史家营乡西岳台村房山区史家营乡西岳台村","ADDRESS2":"","CITY":"房山","ZIP":""},"geometry":{"type":"Point","coordinates":[115.68032,39.86343]}},{"type":"Feature","properties":{"NAME":"百草畔","TEL":"移动","URL":"塔站","ADDRESS1":"北京市房山区百草畔风景区旁边","ADDRESS2":"","CITY":"房山","ZIP":""},"geometry":{"type":"Point","coordinates":[115.6032,39.80472]}},{"type":"Feature","properties":{"NAME":"庄户台","TEL":"移动","URL":"塔站","ADDRESS1":"北京市房山霞云岭乡庄户台村平房","ADDRESS2":"","CITY":"房山","ZIP":""},"geometry":{"type":"Point","coordinates":[115.63699,39.7426]}},{"type":"Feature","properties":{"NAME":"蒲洼","TEL":"移动","URL":"塔站","ADDRESS1":"北京市北京市本部房山蒲洼蒲洼蒲洼蒲洼","ADDRESS2":"","CITY":"房山","ZIP":""},"geometry":{"type":"Point","coordinates":[115.52928,39.73243]}},{"type":"Feature","properties":{"NAME":"芦子水","TEL":"移动","URL":"塔站","ADDRESS1":"北京市本部房山108国道旁蒲洼","ADDRESS2":"","CITY":"房山","ZIP":""},"geometry":{"type":"Point","coordinates":[115.47668,39.77853]}},{"type":"Feature","properties":{"NAME":"口儿村","TEL":"移动","URL":"塔站","ADDRESS1":"北京市房山区佛子庄乡口儿村山坡上","ADDRESS2":"","CITY":"房山","ZIP":""},"geometry":{"type":"Point","coordinates":[115.917139,39.791251]}},{"type":"Feature","properties":{"NAME":"长龙苑","TEL":"联通","URL":"楼站","ADDRESS1":"北京市北京市本部房山长阳镇长龙苑小区000","ADDRESS2":"","CITY":"房山","ZIP":""},"geometry":{"type":"Point","coordinates":[116.20522,39.80588]}},{"type":"Feature","properties":{"NAME":"杨庄子","TEL":"联通","URL":"楼站","ADDRESS1":"房山杨庄子","ADDRESS2":"","CITY":"房山","ZIP":""},"geometry":{"type":"Point","coordinates":[116.21101,39.75401]}},{"type":"Feature","properties":{"NAME":"于管营村东","TEL":"联通","URL":"塔站","ADDRESS1":"北京市北京市本部房山良乡镇0梨村0村委会后","ADDRESS2":"","CITY":"房山","ZIP":""},"geometry":{"type":"Point","coordinates":[116.19801,39.71501]}},{"type":"Feature","properties":{"NAME":"西厂村西","TEL":"联通","URL":"塔站","ADDRESS1":"房山西厂村西","ADDRESS2":"","CITY":"房山","ZIP":""},"geometry":{"type":"Point","coordinates":[116.18001,39.65301]}},{"type":"Feature","properties":{"NAME":"文昌西路","TEL":"联通","URL":"楼站","ADDRESS1":"文昌西路","ADDRESS2":"","CITY":"房山","ZIP":""},"geometry":{"type":"Point","coordinates":[116.164841,39.738785]}},{"type":"Feature","properties":{"NAME":"加州水郡东","TEL":"联通","URL":"塔站","ADDRESS1":"北京市本部房山长阳镇加州水郡000","ADDRESS2":"","CITY":"房山","ZIP":""},"geometry":{"type":"Point","coordinates":[116.17301,39.76701]}},{"type":"Feature","properties":{"NAME":"良乡4","TEL":"联通","URL":"楼站","ADDRESS1":"北京市本部房山良乡镇无昊天大街行宫局办公楼13层联通机房无无","ADDRESS2":"","CITY":"房山","ZIP":""},"geometry":{"type":"Point","coordinates":[116.13497,39.74684]}},{"type":"Feature","properties":{"NAME":"区财政局","TEL":"联通","URL":"楼站","ADDRESS1":"北京市房山区良乡民防局楼顶","ADDRESS2":"","CITY":"房山","ZIP":""},"geometry":{"type":"Point","coordinates":[116.13037,39.721264]}},{"type":"Feature","properties":{"NAME":"薛庄村","TEL":"联通","URL":"塔站","ADDRESS1":"房山琉璃河镇薛庄村","ADDRESS2":"","CITY":"房山","ZIP":""},"geometry":{"type":"Point","coordinates":[116.13543,39.580969]}},{"type":"Feature","properties":{"NAME":"民族大学","TEL":"联通","URL":"楼站","ADDRESS1":"北京市本部房山窦店镇民族大学教学楼五层顶","ADDRESS2":"","CITY":"房山","ZIP":""},"geometry":{"type":"Point","coordinates":[116.088934,39.666625]}},{"type":"Feature","properties":{"NAME":"肖庄","TEL":"联通","URL":"塔站","ADDRESS1":"房山肖庄","ADDRESS2":"","CITY":"房山","ZIP":""},"geometry":{"type":"Point","coordinates":[116.113701,39.699192]}},{"type":"Feature","properties":{"NAME":"焦各庄","TEL":"联通","URL":"塔站","ADDRESS1":"房山焦各庄","ADDRESS2":"","CITY":"房山","ZIP":""},"geometry":{"type":"Point","coordinates":[116.0613,39.79612]}},{"type":"Feature","properties":{"NAME":"岗上村","TEL":"联通","URL":"塔站","ADDRESS1":"房山岗上村","ADDRESS2":"","CITY":"房山","ZIP":""},"geometry":{"type":"Point","coordinates":[116.059564,39.758616]}},{"type":"Feature","properties":{"NAME":"窦店","TEL":"联通","URL":"楼站","ADDRESS1":"窦店京联广场","ADDRESS2":"","CITY":"房山","ZIP":""},"geometry":{"type":"Point","coordinates":[116.06315,39.64626]}},{"type":"Feature","properties":{"NAME":"南洛村","TEL":"联通","URL":"塔站","ADDRESS1":"北京琉璃河镇","ADDRESS2":"","CITY":"房山","ZIP":""},"geometry":{"type":"Point","coordinates":[116.05001,39.57801]}},{"type":"Feature","properties":{"NAME":"琉璃河镇","TEL":"联通","URL":"塔站","ADDRESS1":"琉璃河办事处","ADDRESS2":"","CITY":"房山","ZIP":""},"geometry":{"type":"Point","coordinates":[116.029974,39.61109]}},{"type":"Feature","properties":{"NAME":"坨头村东","TEL":"联通","URL":"塔站","ADDRESS1":"房山坨头村东","ADDRESS2":"","CITY":"房山","ZIP":""},"geometry":{"type":"Point","coordinates":[116.016128,39.650726]}},{"type":"Feature","properties":{"NAME":"大于路东","TEL":"联通","URL":"楼站","ADDRESS1":"房山大于路东","ADDRESS2":"","CITY":"房山","ZIP":""},"geometry":{"type":"Point","coordinates":[116.044205,39.67326]}},{"type":"Feature","properties":{"NAME":"八十亩地村","TEL":"联通","URL":"塔站","ADDRESS1":"房山八十亩地村","ADDRESS2":"","CITY":"房山","ZIP":""},"geometry":{"type":"Point","coordinates":[116.013204,39.756517]}},{"type":"Feature","properties":{"NAME":"二站村村西","TEL":"联通","URL":"塔站","ADDRESS1":"房山石楼镇二站村村西","ADDRESS2":"","CITY":"房山","ZIP":""},"geometry":{"type":"Point","coordinates":[115.979236,39.626657]}},{"type":"Feature","properties":{"NAME":"二中","TEL":"联通","URL":"塔站","ADDRESS1":"房山二中","ADDRESS2":"","CITY":"房山","ZIP":""},"geometry":{"type":"Point","coordinates":[115.969958,39.705502]}},{"type":"Feature","properties":{"NAME":"东升村","TEL":"联通","URL":"塔站","ADDRESS1":"北京市房山区河北镇东升村村东山坡上","ADDRESS2":"","CITY":"房山","ZIP":""},"geometry":{"type":"Point","coordinates":[115.988164,39.782741]}},{"type":"Feature","properties":{"NAME":"西山庄村西","TEL":"联通","URL":"塔站","ADDRESS1":"房山西山庄村西","ADDRESS2":"","CITY":"房山","ZIP":""},"geometry":{"type":"Point","coordinates":[115.917338,39.724444]}},{"type":"Feature","properties":{"NAME":"尤家坟","TEL":"联通","URL":"塔站","ADDRESS1":"房山尤家坟","ADDRESS2":"","CITY":"房山","ZIP":""},"geometry":{"type":"Point","coordinates":[115.921886,39.626035]}},{"type":"Feature","properties":{"NAME":"二龙岗","TEL":"联通","URL":"塔站","ADDRESS1":"房山二龙岗","ADDRESS2":"","CITY":"房山","ZIP":""},"geometry":{"type":"Point","coordinates":[115.90051,39.604973]}},{"type":"Feature","properties":{"NAME":"广润庄","TEL":"联通","URL":"塔站","ADDRESS1":"房山广润庄","ADDRESS2":"","CITY":"房山","ZIP":""},"geometry":{"type":"Point","coordinates":[115.809286,39.533242]}},{"type":"Feature","properties":{"NAME":"郑家磨村","TEL":"联通","URL":"塔站","ADDRESS1":"房山大石窝郑家磨村","ADDRESS2":"","CITY":"房山","ZIP":""},"geometry":{"type":"Point","coordinates":[115.741197,39.532565]}},{"type":"Feature","properties":{"NAME":"三流水村","TEL":"联通","URL":"塔站","ADDRESS1":"三流水村","ADDRESS2":"","CITY":"房山","ZIP":""},"geometry":{"type":"Point","coordinates":[115.761224,39.701541]}},{"type":"Feature","properties":{"NAME":"直河村","TEL":"联通","URL":"塔站","ADDRESS1":"房山庙北直河村","ADDRESS2":"","CITY":"房山","ZIP":""},"geometry":{"type":"Point","coordinates":[115.736916,39.782493]}},{"type":"Feature","properties":{"NAME":"赵亩地村","TEL":"联通","URL":"塔站","ADDRESS1":"大安山赵亩地村","ADDRESS2":"","CITY":"房山","ZIP":""},"geometry":{"type":"Point","coordinates":[115.756996,39.885064]}},{"type":"Feature","properties":{"NAME":"西湖港","TEL":"联通","URL":"塔站","ADDRESS1":"北京市房山十渡镇房山西湖港","ADDRESS2":"","CITY":"房山","ZIP":""},"geometry":{"type":"Point","coordinates":[115.5143,39.65454]}},{"type":"Feature","properties":{"NAME":"石油交易所","TEL":"联通","URL":"楼站","ADDRESS1":"北京市房山城关镇北京石油交易所","ADDRESS2":"","CITY":"房山","ZIP":""},"geometry":{"type":"Point","coordinates":[115.977671,39.687212]}},{"type":"Feature","properties":{"NAME":"黄元井","TEL":"联通","URL":"塔站","ADDRESS1":"北京市本部房山长沟镇0黄元井村00","ADDRESS2":"","CITY":"房山","ZIP":""},"geometry":{"type":"Point","coordinates":[115.840904,39.581197]}},{"type":"Feature","properties":{"NAME":"常营","TEL":"电信","URL":" 塔站 ","ADDRESS1":"北京市本部房山长阳镇稻田村东南500米河堤旁稻田村东南500米河堤旁","ADDRESS2":"","CITY":"房山","ZIP":""},"geometry":{"type":"Point","coordinates":[116.22782,39.77987]}},{"type":"Feature","properties":{"NAME":"佛满村","TEL":"电信","URL":"塔站","ADDRESS1":"北京市房山长阳镇0佛满村00","ADDRESS2":"","CITY":"房山","ZIP":""},"geometry":{"type":"Point","coordinates":[116.20701,39.68101]}},{"type":"Feature","properties":{"NAME":"韩营村","TEL":"电信","URL":"塔站","ADDRESS1":"北京市房山琉璃河镇韩营村韩营村村委会内","ADDRESS2":"","CITY":"房山","ZIP":""},"geometry":{"type":"Point","coordinates":[116.20132,39.584227]}},{"type":"Feature","properties":{"NAME":"张谢村西","TEL":"电信","URL":"塔站","ADDRESS1":"张谢村西良常路东侧小树林边","ADDRESS2":"","CITY":"房山","ZIP":""},"geometry":{"type":"Point","coordinates":[116.13995,39.65903]}},{"type":"Feature","properties":{"NAME":"路村","TEL":"电信","URL":"塔站","ADDRESS1":"北京市房山琉璃河镇0路村00","ADDRESS2":"","CITY":"房山","ZIP":""},"geometry":{"type":"Point","coordinates":[116.102527,39.583621]}},{"type":"Feature","properties":{"NAME":"阎河桥西","TEL":"电信","URL":"塔站","ADDRESS1":"房山阎河桥西","ADDRESS2":"","CITY":"房山","ZIP":""},"geometry":{"type":"Point","coordinates":[116.085194,39.718711]}},{"type":"Feature","properties":{"NAME":"北车营村西","TEL":"电信","URL":"塔站","ADDRESS1":"北车营西","ADDRESS2":"","CITY":"房山","ZIP":""},"geometry":{"type":"Point","coordinates":[116.010033,39.81873]}},{"type":"Feature","properties":{"NAME":"上方山","TEL":"电信","URL":"塔站","ADDRESS1":"北京市房山韩村河镇上方山韩村河镇上方山村村南","ADDRESS2":"","CITY":"房山","ZIP":""},"geometry":{"type":"Point","coordinates":[115.8272,39.6457]}},{"type":"Feature","properties":{"NAME":"上方山","TEL":"电信","URL":"塔站","ADDRESS1":"上方山","ADDRESS2":"","CITY":"房山","ZIP":""},"geometry":{"type":"Point","coordinates":[115.789488,39.670642]}},{"type":"Feature","properties":{"NAME":"张坊镇","TEL":"电信","URL":"塔站","ADDRESS1":"北京市房山张坊镇","ADDRESS2":"","CITY":"房山","ZIP":""},"geometry":{"type":"Point","coordinates":[115.708,39.5667]}},{"type":"Feature","properties":{"NAME":"佛子庄乡东","TEL":"电信","URL":"塔站","ADDRESS1":"北京市房山河北镇佛子庄乡东","ADDRESS2":"","CITY":"房山","ZIP":""},"geometry":{"type":"Point","coordinates":[115.831989,39.822341]}},{"type":"Feature","properties":{"NAME":"九渡","TEL":"电信","URL":"塔站","ADDRESS1":"北京市房山十渡镇八渡村南","ADDRESS2":"","CITY":"房山","ZIP":""},"geometry":{"type":"Point","coordinates":[115.597,39.6308]}},{"type":"Feature","properties":{"NAME":"明光北里","TEL":"移动","URL":"楼站","ADDRESS1":"海淀区西土城路25号中国政法大学主楼6层图书馆南侧","ADDRESS2":"","CITY":"海淀","ZIP":""},"geometry":{"type":"Point","coordinates":[116.34612,39.9636]}},{"type":"Feature","properties":{"NAME":"甘家口大厦","TEL":"移动","URL":"楼站","ADDRESS1":"海淀区三里河路17号甘家口大厦楼顶机房","ADDRESS2":"","CITY":"海淀","ZIP":""},"geometry":{"type":"Point","coordinates":[116.327027,39.926369]}},{"type":"Feature","properties":{"NAME":"望湖楼饭庄","TEL":"移动","URL":"楼站","ADDRESS1":"海淀区上庄路上庄桥东南角望湖楼饭庄后院1层平房内","ADDRESS2":"","CITY":"海淀","ZIP":""},"geometry":{"type":"Point","coordinates":[116.2084764,40.09924614]}},{"type":"Feature","properties":{"NAME":"华中大厦","TEL":"移动","URL":"楼站","ADDRESS1":"中关村南路甲4号中关村医院楼顶平台(8F)","ADDRESS2":"","CITY":"海淀","ZIP":""},"geometry":{"type":"Point","coordinates":[116.31429,39.97923]}},{"type":"Feature","properties":{"NAME":"空军三所","TEL":"移动","URL":"楼站","ADDRESS1":"海淀区西二旗大街空军三所6楼","ADDRESS2":"","CITY":"海淀","ZIP":""},"geometry":{"type":"Point","coordinates":[116.31142,40.05143]}},{"type":"Feature","properties":{"NAME":"中国林科所","TEL":"移动","URL":"塔站","ADDRESS1":"海淀区香山路中国林业科学院","ADDRESS2":"","CITY":"海淀","ZIP":""},"geometry":{"type":"Point","coordinates":[116.239611,40.003723]}},{"type":"Feature","properties":{"NAME":"玉泉山村","TEL":"移动","URL":"塔站","ADDRESS1":"颐和园西门附近美化树塔","ADDRESS2":"","CITY":"海淀","ZIP":""},"geometry":{"type":"Point","coordinates":[116.255371,39.985961]}},{"type":"Feature","properties":{"NAME":"红旗村","TEL":"移动","URL":"塔站","ADDRESS1":"海淀区香山南路红旗村","ADDRESS2":"","CITY":"海淀","ZIP":""},"geometry":{"type":"Point","coordinates":[116.198601,39.981536]}},{"type":"Feature","properties":{"NAME":"北安河","TEL":"移动","URL":"塔站","ADDRESS1":"海淀区双坡路走到头，空军大队院内","ADDRESS2":"","CITY":"海淀","ZIP":""},"geometry":{"type":"Point","coordinates":[116.141801,40.035811]}},{"type":"Feature","properties":{"NAME":"香山南路","TEL":"移动","URL":"楼站","ADDRESS1":"香山路国林山庄","ADDRESS2":"","CITY":"海淀","ZIP":""},"geometry":{"type":"Point","coordinates":[116.197687,39.963119]}},{"type":"Feature","properties":{"NAME":"国际关系学院","TEL":"移动","URL":"塔站","ADDRESS1":"海淀区北宫门路国际关系学院内","ADDRESS2":"","CITY":"海淀","ZIP":""},"geometry":{"type":"Point","coordinates":[116.279625,40.002372]}},{"type":"Feature","properties":{"NAME":"花园北路建行","TEL":"移动","URL":"楼站","ADDRESS1":"海淀区塔院小区花园北路46号花园北路建行(4F)","ADDRESS2":"","CITY":"海淀","ZIP":""},"geometry":{"type":"Point","coordinates":[116.352859,39.980028]}},{"type":"Feature","properties":{"NAME":"海军招待所","TEL":"移动","URL":"楼站","ADDRESS1":"海淀区西三环中路19号海军第三招待所6层机房","ADDRESS2":"","CITY":"海淀","ZIP":""},"geometry":{"type":"Point","coordinates":[116.296931,39.902531]}},{"type":"Feature","properties":{"NAME":"工程兵二所","TEL":"移动","URL":"楼站","ADDRESS1":"海淀区香山路工程兵二所","ADDRESS2":"","CITY":"海淀","ZIP":""},"geometry":{"type":"Point","coordinates":[116.218194,39.997501]}},{"type":"Feature","properties":{"NAME":"丹龙大厦","TEL":"移动","URL":"楼站","ADDRESS1":"海淀区厂洼西街8号五层处楼梯左拐再左拐直行40米侧门内5F","ADDRESS2":"","CITY":"海淀","ZIP":""},"geometry":{"type":"Point","coordinates":[116.29876,39.95168]}},{"type":"Feature","properties":{"NAME":"东小营","TEL":"移动","URL":"塔站","ADDRESS1":"海淀东小营村公园东南角仿生水塔","ADDRESS2":"","CITY":"海淀","ZIP":""},"geometry":{"type":"Point","coordinates":[116.203802,40.12153581]}},{"type":"Feature","properties":{"NAME":"前章村北","TEL":"移动","URL":"塔站","ADDRESS1":"沙阳路前樟村北右边白色美化塔","ADDRESS2":"","CITY":"海淀","ZIP":""},"geometry":{"type":"Point","coordinates":[116.168264,40.127617]}},{"type":"Feature","properties":{"NAME":"中关村软件园","TEL":"移动","URL":"楼站","ADDRESS1":"北京市海淀区中关村软件园IBM大厦","ADDRESS2":"","CITY":"海淀","ZIP":""},"geometry":{"type":"Point","coordinates":[116.285851,40.043761]}},{"type":"Feature","properties":{"NAME":"隆屋精品酒店","TEL":"移动","URL":"楼站","ADDRESS1":"海淀区恩济里35号隆屋精品酒店楼顶","ADDRESS2":"","CITY":"海淀","ZIP":""},"geometry":{"type":"Point","coordinates":[116.281585,39.927669]}},{"type":"Feature","properties":{"NAME":"自在香山东北","TEL":"移动","URL":"楼站","ADDRESS1":"海淀区四季御园门口","ADDRESS2":"","CITY":"海淀","ZIP":""},"geometry":{"type":"Point","coordinates":[116.232291,39.976681]}},{"type":"Feature","properties":{"NAME":"永泰东里东侧","TEL":"移动","URL":"楼站","ADDRESS1":"海淀区清河永泰庄甲8号楼顶机房","ADDRESS2":"","CITY":"海淀","ZIP":""},"geometry":{"type":"Point","coordinates":[116.3582609,40.03439026]}},{"type":"Feature","properties":{"NAME":"韩家川","TEL":"移动","URL":"塔站","ADDRESS1":"海淀区韩家川公交总站部队家属区","ADDRESS2":"","CITY":"海淀","ZIP":""},"geometry":{"type":"Point","coordinates":[116.234356,40.031449]}},{"type":"Feature","properties":{"NAME":"小锅伙村","TEL":"移动","URL":"塔站","ADDRESS1":"海淀区小锅伙村东","ADDRESS2":"","CITY":"海淀","ZIP":""},"geometry":{"type":"Point","coordinates":[116.2047659,40.05238346]}},{"type":"Feature","properties":{"NAME":"国防大学","TEL":"移动","URL":"塔站","ADDRESS1":"海淀区国防大学内301楼楼顶机房","ADDRESS2":"","CITY":"海淀","ZIP":""},"geometry":{"type":"Point","coordinates":[116.255975,40.018058]}},{"type":"Feature","properties":{"NAME":"华为环保园","TEL":"移动","URL":"楼站","ADDRESS1":"海淀华为环保园北侧","ADDRESS2":"","CITY":"海淀","ZIP":""},"geometry":{"type":"Point","coordinates":[116.178893,40.057367]}},{"type":"Feature","properties":{"NAME":"今日家园","TEL":"移动","URL":"楼站","ADDRESS1":"海淀区太平路8号雪莲假日酒店楼顶一体化机柜","ADDRESS2":"","CITY":"海淀","ZIP":""},"geometry":{"type":"Point","coordinates":[116.274496,39.898741]}},{"type":"Feature","properties":{"NAME":"木樨地桥南","TEL":"移动","URL":"楼站","ADDRESS1":"海淀区复兴路2号北京东方实业有限公司6层","ADDRESS2":"","CITY":"海淀","ZIP":""},"geometry":{"type":"Point","coordinates":[116.327941,39.902451]}},{"type":"Feature","properties":{"NAME":"稻香湖北侧","TEL":"移动","URL":"塔站","ADDRESS1":"海淀区稻香湖畔酒店往北1.5公里园林管理站旁杆塔","ADDRESS2":"","CITY":"海淀","ZIP":""},"geometry":{"type":"Point","coordinates":[116.1693746,40.10313618]}},{"type":"Feature","properties":{"NAME":"白家疃","TEL":"移动","URL":"塔站","ADDRESS1":"海淀区双坡路树林内","ADDRESS2":"","CITY":"海淀","ZIP":""},"geometry":{"type":"Point","coordinates":[116.164221,40.042681]}},{"type":"Feature","properties":{"NAME":"六郎庄","TEL":"移动","URL":"塔站","ADDRESS1":"海淀区六郎庄桥北侧往北500米","ADDRESS2":"","CITY":"海淀","ZIP":""},"geometry":{"type":"Point","coordinates":[116.285181,39.985763]}},{"type":"Feature","properties":{"NAME":"上庄西马坊村","TEL":"移动","URL":"塔站","ADDRESS1":"海淀区上庄镇西马坊村委会往南1公里管塔","ADDRESS2":"","CITY":"海淀","ZIP":""},"geometry":{"type":"Point","coordinates":[116.1911083,40.08184585]}},{"type":"Feature","properties":{"NAME":"一航培训楼","TEL":"移动","URL":"塔站","ADDRESS1":"海淀区燕飞培训中心楼顶机房","ADDRESS2":"","CITY":"海淀","ZIP":""},"geometry":{"type":"Point","coordinates":[116.206026,40.032111]}},{"type":"Feature","properties":{"NAME":"武警十六支队","TEL":"移动","URL":"楼站","ADDRESS1":"海淀区西四环云会寺路武警十六支队旁边军医医院内4F+1楼顶","ADDRESS2":"","CITY":"海淀","ZIP":""},"geometry":{"type":"Point","coordinates":[116.272631,39.942041]}},{"type":"Feature","properties":{"NAME":"皇后店村北","TEL":"移动","URL":"塔站","ADDRESS1":"海淀区西北旺镇人民政府皇后店村北","ADDRESS2":"","CITY":"海淀","ZIP":""},"geometry":{"type":"Point","coordinates":[116.247411,40.092311]}},{"type":"Feature","properties":{"NAME":"农科院植保所","TEL":"移动","URL":"楼站","ADDRESS1":"北京市海淀区圆明园南路2号院","ADDRESS2":"","CITY":"海淀","ZIP":""},"geometry":{"type":"Point","coordinates":[116.279167,40.021639]}},{"type":"Feature","properties":{"NAME":"北京体育大学","TEL":"移动","URL":"楼站","ADDRESS1":"北京市海淀区体育大学内教学楼楼顶","ADDRESS2":"","CITY":"海淀","ZIP":""},"geometry":{"type":"Point","coordinates":[116.312391,40.021611]}},{"type":"Feature","properties":{"NAME":"祁家村","TEL":"移动","URL":"楼站","ADDRESS1":"杏石口路祁家村10号2楼西侧（村里世纪兴连锁超市南侧胡同里美化筒）","ADDRESS2":"","CITY":"海淀","ZIP":""},"geometry":{"type":"Point","coordinates":[116.21729,39.96003]}},{"type":"Feature","properties":{"NAME":"唐家岭新城","TEL":"移动","URL":"楼站","ADDRESS1":"北京市海淀区唐家岭新城1号楼","ADDRESS2":"","CITY":"海淀","ZIP":""},"geometry":{"type":"Point","coordinates":[116.273964,40.065462]}},{"type":"Feature","properties":{"NAME":"永旭北路","TEL":"移动","URL":"塔站","ADDRESS1":"海淀区永旭北路北端绿地内","ADDRESS2":"","CITY":"海淀","ZIP":""},"geometry":{"type":"Point","coordinates":[116.237001,40.078291]}},{"type":"Feature","properties":{"NAME":"奥8街小区","TEL":"移动","URL":"楼站","ADDRESS1":"海淀奥8街小区","ADDRESS2":"","CITY":"海淀","ZIP":""},"geometry":{"type":"Point","coordinates":[116.365597,40.068474]}},{"type":"Feature","properties":{"NAME":"国防大学礼堂","TEL":"移动","URL":"楼站","ADDRESS1":"海淀区复兴路83号院礼堂楼顶一体化机柜","ADDRESS2":"","CITY":"海淀","ZIP":""},"geometry":{"type":"Point","coordinates":[116.251201,39.909991]}},{"type":"Feature","properties":{"NAME":"科技财富中心","TEL":"移动","URL":"塔站","ADDRESS1":"海淀科技财富中心东南小月河边灯杆站","ADDRESS2":"","CITY":"海淀","ZIP":""},"geometry":{"type":"Point","coordinates":[116.3497966,40.01228854]}},{"type":"Feature","properties":{"NAME":"香山买卖街","TEL":"移动","URL":"楼站","ADDRESS1":"海淀区香山买卖街40号","ADDRESS2":"","CITY":"海淀","ZIP":""},"geometry":{"type":"Point","coordinates":[116.181403,39.995945]}},{"type":"Feature","properties":{"NAME":"永建村","TEL":"移动","URL":"楼站","ADDRESS1":"海淀区五孔桥56号一幢7天连锁酒店6层楼","ADDRESS2":"","CITY":"海淀","ZIP":""},"geometry":{"type":"Point","coordinates":[116.263531,39.929291]}},{"type":"Feature","properties":{"NAME":"台头村G","TEL":"移动","URL":"一体化","ADDRESS1":"海淀区台头村老村委会院子杆塔","ADDRESS2":"","CITY":"海淀","ZIP":""},"geometry":{"type":"Point","coordinates":[116.109663,40.108821]}},{"type":"Feature","properties":{"NAME":"七王坟村委会","TEL":"移动","URL":"砖混","ADDRESS1":"海淀区苏家坨镇七王坟村","ADDRESS2":"","CITY":"海淀","ZIP":""},"geometry":{"type":"Point","coordinates":[116.089731,40.080861]}},{"type":"Feature","properties":{"NAME":"长城锅炉厂","TEL":"移动","URL":"砖混","ADDRESS1":"海淀区学院南路四道口皂君庙1号平房","ADDRESS2":"","CITY":"海淀","ZIP":""},"geometry":{"type":"Point","coordinates":[116.139131,40.080031]}},{"type":"Feature","properties":{"NAME":"周家巷","TEL":"移动","URL":"砖混","ADDRESS1":"海淀区北安河路周家巷村委会","ADDRESS2":"","CITY":"海淀","ZIP":""},"geometry":{"type":"Point","coordinates":[116.128236,40.050911]}},{"type":"Feature","properties":{"NAME":"吴各庄","TEL":"联通","URL":"地面塔","ADDRESS1":"北京市通州区宋庄镇吴各庄村吴各庄村村北","ADDRESS2":"","CITY":"通州","ZIP":""},"geometry":{"type":"Point","coordinates":[116.617538,40.018738]}},{"type":"Feature","properties":{"NAME":"平家疃","TEL":"电信","URL":"地面塔","ADDRESS1":"北京市通州区宋庄镇平家疃村","ADDRESS2":"","CITY":"通州","ZIP":""},"geometry":{"type":"Point","coordinates":[116.726578,40.013548]}},{"type":"Feature","properties":{"NAME":"葛渠村","TEL":"联通","URL":"地面塔","ADDRESS1":"北京市通州区葛渠村葛渠村村委会","ADDRESS2":"","CITY":"通州","ZIP":""},"geometry":{"type":"Point","coordinates":[116.64169,40.01242]}},{"type":"Feature","properties":{"NAME":"草寺村","TEL":"联通","URL":"地面塔","ADDRESS1":"北京市通州区草寺村","ADDRESS2":"","CITY":"通州","ZIP":""},"geometry":{"type":"Point","coordinates":[116.67,39.989]}},{"type":"Feature","properties":{"NAME":"徐辛庄","TEL":"电信","URL":"地面塔","ADDRESS1":"北京市通州区徐辛庄乡大庞村","ADDRESS2":"","CITY":"通州","ZIP":""},"geometry":{"type":"Point","coordinates":[116.705372,39.984865]}},{"type":"Feature","properties":{"NAME":"高各庄","TEL":"联通","URL":"地面塔","ADDRESS1":"北京市通州区宋庄镇高各庄村新建厕所旁空地","ADDRESS2":"","CITY":"通州","ZIP":""},"geometry":{"type":"Point","coordinates":[116.758,39.995]}},{"type":"Feature","properties":{"NAME":"小杨各庄","TEL":"联通","URL":"地面塔","ADDRESS1":"通州小杨各庄","ADDRESS2":"","CITY":"通州","ZIP":""},"geometry":{"type":"Point","coordinates":[116.751,39.973]}},{"type":"Feature","properties":{"NAME":"沙场","TEL":"联通","URL":"地面塔","ADDRESS1":"北京市通州区沙场村沙场村东","ADDRESS2":"","CITY":"通州","ZIP":""},"geometry":{"type":"Point","coordinates":[116.702,39.966]}},{"type":"Feature","properties":{"NAME":"京顺路双埠头","TEL":"联通","URL":"地面塔","ADDRESS1":"北京市通州区宋庄镇双埠头村双埠头移动塔","ADDRESS2":"","CITY":"通州","ZIP":""},"geometry":{"type":"Point","coordinates":[116.669,39.97]}},{"type":"Feature","properties":{"NAME":"黎各庄村委会","TEL":"移动","URL":"地面塔","ADDRESS1":"北京市朝阳区金盏乡黎各庄村-一层无线机房","ADDRESS2":"","CITY":"通州","ZIP":""},"geometry":{"type":"Point","coordinates":[116.6347222,39.96944444]}},{"type":"Feature","properties":{"NAME":"尹各庄","TEL":"移动","URL":"地面塔","ADDRESS1":"北京市通州区尹各庄无线机房","ADDRESS2":"","CITY":"通州","ZIP":""},"geometry":{"type":"Point","coordinates":[116.6480556,39.98277778]}},{"type":"Feature","properties":{"NAME":"奥海休闲广场","TEL":"联通","URL":"楼面塔","ADDRESS1":"北京市通州区东边村奥海休闲娱乐广场商业楼楼顶","ADDRESS2":"","CITY":"通州","ZIP":""},"geometry":{"type":"Point","coordinates":[116.662273,39.935521]}},{"type":"Feature","properties":{"NAME":"区疃里","TEL":"移动","URL":"地面塔","ADDRESS1":"北京市通州区宋庄镇疃里联通公司无线机房","ADDRESS2":"","CITY":"通州","ZIP":""},"geometry":{"type":"Point","coordinates":[116.6875,39.94861111]}},{"type":"Feature","properties":{"NAME":"任庄村","TEL":"联通","URL":"地面塔","ADDRESS1":"北京市通州区宋庄镇任庄村任庄村村委会","ADDRESS2":"","CITY":"通州","ZIP":""},"geometry":{"type":"Point","coordinates":[116.742,39.9502]}},{"type":"Feature","properties":{"NAME":"运河苑度假村","TEL":"联通","URL":"地面塔","ADDRESS1":"北京市通州区宋庄镇运河苑度假村移动铁塔旁宾馆","ADDRESS2":"","CITY":"通州","ZIP":""},"geometry":{"type":"Point","coordinates":[116.77472,39.94143]}},{"type":"Feature","properties":{"NAME":"北刘各庄","TEL":"联通","URL":"地面塔","ADDRESS1":"北京市通州区宋庄镇刘各庄村刘各庄村工业区","ADDRESS2":"","CITY":"通州","ZIP":""},"geometry":{"type":"Point","coordinates":[116.757,39.927]}},{"type":"Feature","properties":{"NAME":"胡各庄局","TEL":"联通","URL":"地面塔","ADDRESS1":"北京市通州区潞城镇胡各庄村","ADDRESS2":"","CITY":"通州","ZIP":""},"geometry":{"type":"Point","coordinates":[116.7309,39.9104]}},{"type":"Feature","properties":{"NAME":"紫运园","TEL":"联通","URL":"地面塔","ADDRESS1":"北京市通州区潞城镇通胡大街紫运园小区锅炉房锅炉房下绿地","ADDRESS2":"","CITY":"通州","ZIP":""},"geometry":{"type":"Point","coordinates":[116.70155,39.91144]}},{"type":"Feature","properties":{"NAME":"农业银行","TEL":"联通","URL":"地面塔","ADDRESS1":"北京市通州区永顺地区北大街农行如意园小区储蓄所","ADDRESS2":"","CITY":"通州","ZIP":""},"geometry":{"type":"Point","coordinates":[116.661949,39.911848]}},{"type":"Feature","properties":{"NAME":"竹木场局","TEL":"联通","URL":"楼面塔","ADDRESS1":"北京市通州区永顺地区联通竹木场线路局主楼一层机房","ADDRESS2":"","CITY":"通州","ZIP":""},"geometry":{"type":"Point","coordinates":[116.6207,39.90976]}},{"type":"Feature","properties":{"NAME":"区杨庄","TEL":"移动","URL":"地面塔","ADDRESS1":"北京市通州区杨庄联通公司无线机房","ADDRESS2":"","CITY":"通州","ZIP":""},"geometry":{"type":"Point","coordinates":[116.6291667,39.89805556]}},{"type":"Feature","properties":{"NAME":"北杨洼","TEL":"联通","URL":"楼面塔","ADDRESS1":"北京市通州区梨园地区北杨洼村北杨洼村北杨洼小区20号楼","ADDRESS2":"","CITY":"通州","ZIP":""},"geometry":{"type":"Point","coordinates":[116.662332,39.88636]}},{"type":"Feature","properties":{"NAME":"乔庄家具城","TEL":"移动","URL":"地面塔","ADDRESS1":"北京市通州区永顺镇乔庄家具城南侧绿地","ADDRESS2":"","CITY":"通州","ZIP":""},"geometry":{"type":"Point","coordinates":[116.6908333,39.885]}},{"type":"Feature","properties":{"NAME":"庙上","TEL":"电信","URL":"地面塔","ADDRESS1":"通州区庙上村","ADDRESS2":"","CITY":"通州","ZIP":""},"geometry":{"type":"Point","coordinates":[116.73095,39.89055]}},{"type":"Feature","properties":{"NAME":"贾后疃村西","TEL":"移动","URL":"地面塔","ADDRESS1":"贾后疃村开新农场西","ADDRESS2":"","CITY":"通州","ZIP":""},"geometry":{"type":"Point","coordinates":[116.802591,39.875071]}},{"type":"Feature","properties":{"NAME":"贾后疃","TEL":"联通","URL":"地面塔","ADDRESS1":"北京市通州区潞城镇东前营村贾后疃村东前营村村委会东前营村村委会北侧机井房外","ADDRESS2":"","CITY":"通州","ZIP":""},"geometry":{"type":"Point","coordinates":[116.817,39.8665]}},{"type":"Feature","properties":{"NAME":"卜落垡","TEL":"联通","URL":"地面塔","ADDRESS1":"北京市通州区潞城镇卜落垡村","ADDRESS2":"","CITY":"通州","ZIP":""},"geometry":{"type":"Point","coordinates":[116.795,39.866]}},{"type":"Feature","properties":{"NAME":"大甘棠","TEL":"电信","URL":"地面塔","ADDRESS1":"通州区潞城工业区北京环佩环保公司院内空地","ADDRESS2":"","CITY":"通州","ZIP":""},"geometry":{"type":"Point","coordinates":[116.77273,39.86025]}},{"type":"Feature","properties":{"NAME":"张辛庄村","TEL":"联通","URL":"地面塔","ADDRESS1":"北京市通州区张辛庄村","ADDRESS2":"","CITY":"通州","ZIP":""},"geometry":{"type":"Point","coordinates":[116.736,39.864]}},{"type":"Feature","properties":{"NAME":"土桥家园","TEL":"联通","URL":"地面塔","ADDRESS1":"北京市通州区通州土桥家园","ADDRESS2":"","CITY":"通州","ZIP":""},"geometry":{"type":"Point","coordinates":[116.692,39.8621]}},{"type":"Feature","properties":{"NAME":"梨园邮政局","TEL":"移动","URL":"地面塔","ADDRESS1":"北京市通州区梨园镇政府大街西侧45号邮政局院内","ADDRESS2":"","CITY":"通州","ZIP":""},"geometry":{"type":"Point","coordinates":[116.6558333,39.86694444]}},{"type":"Feature","properties":{"NAME":"大方居北","TEL":"联通","URL":"地面塔","ADDRESS1":"通州大方居小区北侧","ADDRESS2":"","CITY":"通州","ZIP":""},"geometry":{"type":"Point","coordinates":[116.625,39.877]}},{"type":"Feature","properties":{"NAME":"台湖新华联","TEL":"联通","URL":"地面塔","ADDRESS1":"北京市通州区台湖镇台湖新华联公司主楼对面绿化带","ADDRESS2":"","CITY":"通州","ZIP":""},"geometry":{"type":"Point","coordinates":[116.62054,39.83229]}},{"type":"Feature","properties":{"NAME":"唐小庄村","TEL":"移动","URL":"地面塔","ADDRESS1":"北京市通州区张家湾镇唐小庄村","ADDRESS2":"","CITY":"通州","ZIP":""},"geometry":{"type":"Point","coordinates":[116.6891667,39.84194444]}},{"type":"Feature","properties":{"NAME":"环湖小镇","TEL":"联通","URL":"地面塔","ADDRESS1":"北京市通州区环湖小镇小区东北角","ADDRESS2":"","CITY":"通州","ZIP":""},"geometry":{"type":"Point","coordinates":[116.733,39.842]}},{"type":"Feature","properties":{"NAME":"里二泗村","TEL":"联通","URL":"地面塔","ADDRESS1":"北京市通州区张家湾镇里二泗村里二泗村147号大院","ADDRESS2":"","CITY":"通州","ZIP":""},"geometry":{"type":"Point","coordinates":[116.766075,39.823544]}},{"type":"Feature","properties":{"NAME":"崔家楼","TEL":"联通","URL":"地面塔","ADDRESS1":"北京市通州区崔家楼村村口空地","ADDRESS2":"","CITY":"通州","ZIP":""},"geometry":{"type":"Point","coordinates":[116.794,39.8383]}},{"type":"Feature","properties":{"NAME":"谢楼","TEL":"联通","URL":"地面塔","ADDRESS1":"北京市通州区潞城镇谢楼村","ADDRESS2":"","CITY":"通州","ZIP":""},"geometry":{"type":"Point","coordinates":[116.822,39.834]}},{"type":"Feature","properties":{"NAME":"西集于辛庄","TEL":"联通","URL":"地面塔","ADDRESS1":"北京市通州区西集镇于辛庄路路边空地","ADDRESS2":"","CITY":"通州","ZIP":""},"geometry":{"type":"Point","coordinates":[116.878,39.835]}},{"type":"Feature","properties":{"NAME":"侯各庄","TEL":"移动","URL":"地面塔","ADDRESS1":"北京市通州区西集镇侯各庄村委会院内无线机房","ADDRESS2":"","CITY":"通州","ZIP":""},"geometry":{"type":"Point","coordinates":[116.9061111,39.84166667]}},{"type":"Feature","properties":{"NAME":"史东仪","TEL":"联通","URL":"地面塔","ADDRESS1":"北京市通州区西集镇东仪村东仪村村委会院外空地","ADDRESS2":"","CITY":"通州","ZIP":""},"geometry":{"type":"Point","coordinates":[116.904,39.8218]}},{"type":"Feature","properties":{"NAME":"西集大沙务","TEL":"移动","URL":"地面塔","ADDRESS1":"北京市通州区西集镇大沙务村村东","ADDRESS2":"","CITY":"通州","ZIP":""},"geometry":{"type":"Point","coordinates":[116.9211111,39.80611111]}},{"type":"Feature","properties":{"NAME":"小灰店","TEL":"联通","URL":"地面塔","ADDRESS1":"北京市通州区西集镇小灰店村加油站南面空地","ADDRESS2":"","CITY":"通州","ZIP":""},"geometry":{"type":"Point","coordinates":[116.902,39.802]}},{"type":"Feature","properties":{"NAME":"张各庄东","TEL":"联通","URL":"地面塔","ADDRESS1":"北京市通州区西集镇张各庄村张各庄东","ADDRESS2":"","CITY":"通州","ZIP":""},"geometry":{"type":"Point","coordinates":[116.857,39.798]}},{"type":"Feature","properties":{"NAME":"太平庄","TEL":"联通","URL":"地面塔","ADDRESS1":"北京市通州区西集镇太平庄村太平庄村西口","ADDRESS2":"","CITY":"通州","ZIP":""},"geometry":{"type":"Point","coordinates":[116.814,39.807]}},{"type":"Feature","properties":{"NAME":"京沈运河人家","TEL":"联通","URL":"地面塔","ADDRESS1":"北京市通州区供给村村南京沈高速边空地","ADDRESS2":"","CITY":"通州","ZIP":""},"geometry":{"type":"Point","coordinates":[116.800066,39.80308]}},{"type":"Feature","properties":{"NAME":"靛庄开关厂","TEL":"联通","URL":"地面塔","ADDRESS1":"北京市通州区漷县镇靛庄村靛庄小学墙外","ADDRESS2":"","CITY":"通州","ZIP":""},"geometry":{"type":"Point","coordinates":[116.756,39.803]}},{"type":"Feature","properties":{"NAME":"枣林庄","TEL":"联通","URL":"地面塔","ADDRESS1":"北京市通州区枣林庄村村内空地","ADDRESS2":"","CITY":"通州","ZIP":""},"geometry":{"type":"Point","coordinates":[116.721081,39.810859]}},{"type":"Feature","properties":{"NAME":"机场北","TEL":"移动","URL":"地面塔","ADDRESS1":"北京市通州区张家湾镇齐善庄村无线机房","ADDRESS2":"","CITY":"通州","ZIP":""},"geometry":{"type":"Point","coordinates":[116.6947222,39.82083333]}},{"type":"Feature","properties":{"NAME":"碱厂南","TEL":"联通","URL":"地面塔","ADDRESS1":"北京市通州区碱厂村村西南酸厂东墙外","ADDRESS2":"","CITY":"通州","ZIP":""},"geometry":{"type":"Point","coordinates":[116.661,39.819]}},{"type":"Feature","properties":{"NAME":"永隆屯","TEL":"移动","URL":"地面塔","ADDRESS1":"北京市通州区台湖镇永隆屯村无线机房","ADDRESS2":"","CITY":"通州","ZIP":""},"geometry":{"type":"Point","coordinates":[116.6058333,39.81416667]}},{"type":"Feature","properties":{"NAME":"次渠","TEL":"电信","URL":"地面塔","ADDRESS1":"北京市通州区次渠镇一村村民委员会","ADDRESS2":"","CITY":"通州","ZIP":""},"geometry":{"type":"Point","coordinates":[116.587064,39.805188]}},{"type":"Feature","properties":{"NAME":"次渠开发区","TEL":"联通","URL":"地面塔","ADDRESS1":"北京市通州区台湖镇北神树村中关村科技园区次渠光机电一体化产业基地光联工业园南侧空地","ADDRESS2":"","CITY":"通州","ZIP":""},"geometry":{"type":"Point","coordinates":[116.54564,39.80855]}},{"type":"Feature","properties":{"NAME":"台湖崔窑村","TEL":"移动","URL":"地面塔","ADDRESS1":"北京市通州区台湖镇崔窑村无线机房","ADDRESS2":"","CITY":"通州","ZIP":""},"geometry":{"type":"Point","coordinates":[116.570448,39.790802]}},{"type":"Feature","properties":{"NAME":"京津主站六","TEL":"移动","URL":"地面塔","ADDRESS1":"北京市通州区台湖高营村西南京津高铁","ADDRESS2":"","CITY":"通州","ZIP":""},"geometry":{"type":"Point","coordinates":[116.6205556,39.79333333]}},{"type":"Feature","properties":{"NAME":"陆辛庄西","TEL":"联通","URL":"地面塔","ADDRESS1":"北京市通州区台湖镇陆辛庄村村西工业区","ADDRESS2":"","CITY":"通州","ZIP":""},"geometry":{"type":"Point","coordinates":[116.662,39.793]}},{"type":"Feature","properties":{"NAME":"北大化村","TEL":"联通","URL":"地面塔","ADDRESS1":"北京市通州区北大化村","ADDRESS2":"","CITY":"通州","ZIP":""},"geometry":{"type":"Point","coordinates":[116.691,39.79]}},{"type":"Feature","properties":{"NAME":"王各庄村","TEL":"移动","URL":"地面塔","ADDRESS1":"北京市通州区王各庄村西北","ADDRESS2":"","CITY":"通州","ZIP":""},"geometry":{"type":"Point","coordinates":[116.7322222,39.77638889]}},{"type":"Feature","properties":{"NAME":"郭县","TEL":"联通","URL":"地面塔","ADDRESS1":"北京市通州区漷县镇翟各庄村","ADDRESS2":"","CITY":"通州","ZIP":""},"geometry":{"type":"Point","coordinates":[116.749165,39.782506]}},{"type":"Feature","properties":{"NAME":"漷县南阳村","TEL":"移动","URL":"地面塔","ADDRESS1":"北京市通州区漷县镇南阳村东南侧","ADDRESS2":"","CITY":"通州","ZIP":""},"geometry":{"type":"Point","coordinates":[116.7786111,39.78277778]}},{"type":"Feature","properties":{"NAME":"西集王庄","TEL":"移动","URL":"地面塔","ADDRESS1":"北京市通州区西集镇王庄村村民委员会无线机房","ADDRESS2":"","CITY":"通州","ZIP":""},"geometry":{"type":"Point","coordinates":[116.8411111,39.78111111]}},{"type":"Feature","properties":{"NAME":"和合站村","TEL":"移动","URL":"地面塔","ADDRESS1":"北京市通州区西集镇和合站村村民委员会","ADDRESS2":"","CITY":"通州","ZIP":""},"geometry":{"type":"Point","coordinates":[116.8672222,39.77027778]}},{"type":"Feature","properties":{"NAME":"西集牛牧屯村","TEL":"移动","URL":"地面塔","ADDRESS1":"北京市通州区西集镇牛牧屯村委会东侧","ADDRESS2":"","CITY":"通州","ZIP":""},"geometry":{"type":"Point","coordinates":[116.9302778,39.78361111]}},{"type":"Feature","properties":{"NAME":"肖家林村","TEL":"电信","URL":"地面塔","ADDRESS1":"通州区辛集村","ADDRESS2":"","CITY":"通州","ZIP":""},"geometry":{"type":"Point","coordinates":[116.90411,39.77843]}},{"type":"Feature","properties":{"NAME":"侯黄庄","TEL":"联通","URL":"地面塔","ADDRESS1":"北京市通州区漷县镇侯庄侯黄庄村","ADDRESS2":"","CITY":"通州","ZIP":""},"geometry":{"type":"Point","coordinates":[116.87895,39.739438]}},{"type":"Feature","properties":{"NAME":"南丁庄","TEL":"联通","URL":"地面塔","ADDRESS1":"北京市通州区漷县镇南丁庄村南丁庄村委会内","ADDRESS2":"","CITY":"通州","ZIP":""},"geometry":{"type":"Point","coordinates":[116.77793,39.75182]}},{"type":"Feature","properties":{"NAME":"草厂","TEL":"联通","URL":"地面塔","ADDRESS1":"北京市通州区漷县镇草厂村草厂村村西","ADDRESS2":"","CITY":"通州","ZIP":""},"geometry":{"type":"Point","coordinates":[116.7595794,39.7423375]}},{"type":"Feature","properties":{"NAME":"北仪阁","TEL":"联通","URL":"地面塔","ADDRESS1":"北京市通州区仪阁村","ADDRESS2":"","CITY":"通州","ZIP":""},"geometry":{"type":"Point","coordinates":[116.717,39.756]}},{"type":"Feature","properties":{"NAME":"前街村西","TEL":"联通","URL":"地面塔","ADDRESS1":"通州区前街村西","ADDRESS2":"","CITY":"通州","ZIP":""},"geometry":{"type":"Point","coordinates":[116.6739,39.75082]}},{"type":"Feature","properties":{"NAME":"小杜村","TEL":"联通","URL":"地面塔","ADDRESS1":"通州区小杜村","ADDRESS2":"","CITY":"通州","ZIP":""},"geometry":{"type":"Point","coordinates":[116.6601,39.75938]}},{"type":"Feature","properties":{"NAME":"后堰上","TEL":"联通","URL":"地面塔","ADDRESS1":"北京市通州区后堰上村","ADDRESS2":"","CITY":"通州","ZIP":""},"geometry":{"type":"Point","coordinates":[116.623,39.772]}},{"type":"Feature","properties":{"NAME":"马驹桥东南","TEL":"联通","URL":"地面塔","ADDRESS1":"北京市通州区马驹桥镇马驹桥物流园出口东南侧空地","ADDRESS2":"","CITY":"通州","ZIP":""},"geometry":{"type":"Point","coordinates":[116.569903,39.752315]}},{"type":"Feature","properties":{"NAME":"马桥水务所","TEL":"移动","URL":"地面塔","ADDRESS1":"北京市通州区马驹桥镇水务一所无线机房","ADDRESS2":"","CITY":"通州","ZIP":""},"geometry":{"type":"Point","coordinates":[116.5461111,39.76527778]}},{"type":"Feature","properties":{"NAME":"杨绣店","TEL":"联通","URL":"地面塔","ADDRESS1":"北京市通州区马驹桥镇杨绣店村杨绣店村杨绣店村委会","ADDRESS2":"","CITY":"通州","ZIP":""},"geometry":{"type":"Point","coordinates":[116.5627169,39.7231564]}},{"type":"Feature","properties":{"NAME":"马驹桥开发区","TEL":"联通","URL":"地面塔","ADDRESS1":"北京市通州区马驹桥镇马驹桥开发区辛房路纳尔特集团","ADDRESS2":"","CITY":"通州","ZIP":""},"geometry":{"type":"Point","coordinates":[116.54408,39.73304]}},{"type":"Feature","properties":{"NAME":"西田阳","TEL":"联通","URL":"地面塔","ADDRESS1":"北京市通州区马驹桥镇西田阳村西田阳村村委会旁边大院内","ADDRESS2":"","CITY":"通州","ZIP":""},"geometry":{"type":"Point","coordinates":[116.60519,39.73931]}},{"type":"Feature","properties":{"NAME":"小松垡","TEL":"移动","URL":"地面塔","ADDRESS1":"北京市通州区马驹桥镇松垡村智初装订厂院内无线机房","ADDRESS2":"","CITY":"通州","ZIP":""},"geometry":{"type":"Point","coordinates":[116.6477778,39.72972222]}},{"type":"Feature","properties":{"NAME":"东马各庄","TEL":"联通","URL":"地面塔","ADDRESS1":"北京市通州区马各庄村村口空地","ADDRESS2":"","CITY":"通州","ZIP":""},"geometry":{"type":"Point","coordinates":[116.682,39.732]}},{"type":"Feature","properties":{"NAME":"于家务北","TEL":"联通","URL":"地面塔","ADDRESS1":"北京市通州区于家务回族乡神仙村于家务北京津高铁于家务北高铁边200米处","ADDRESS2":"","CITY":"通州","ZIP":""},"geometry":{"type":"Point","coordinates":[116.71176,39.729066]}},{"type":"Feature","properties":{"NAME":"北堤寺","TEL":"联通","URL":"地面塔","ADDRESS1":"北京市通州区北堤寺村村内空地","ADDRESS2":"","CITY":"通州","ZIP":""},"geometry":{"type":"Point","coordinates":[116.744,39.719]}},{"type":"Feature","properties":{"NAME":"黄厂铺","TEL":"移动","URL":"地面塔","ADDRESS1":"北京市通州区县镇黄厂铺村无线机房","ADDRESS2":"","CITY":"通州","ZIP":""},"geometry":{"type":"Point","coordinates":[116.7847222,39.73444444]}},{"type":"Feature","properties":{"NAME":"觅子店","TEL":"电信","URL":"地面塔","ADDRESS1":"北京市通州区觅子店镇觅子店村内","ADDRESS2":"","CITY":"通州","ZIP":""},"geometry":{"type":"Point","coordinates":[116.878233,39.708802]}},{"type":"Feature","properties":{"NAME":"漷县梁家务","TEL":"联通","URL":"地面塔","ADDRESS1":"北京市通州区觅子店村梁家务村","ADDRESS2":"","CITY":"通州","ZIP":""},"geometry":{"type":"Point","coordinates":[116.898,39.688]}},{"type":"Feature","properties":{"NAME":"后元化","TEL":"联通","URL":"地面塔","ADDRESS1":"北京市通州区漷县镇后元化村委会后空地","ADDRESS2":"","CITY":"通州","ZIP":""},"geometry":{"type":"Point","coordinates":[116.86426,39.68242]}},{"type":"Feature","properties":{"NAME":"老槐庄","TEL":"联通","URL":"地面塔","ADDRESS1":"北京市通州区永乐店镇老槐庄村","ADDRESS2":"","CITY":"通州","ZIP":""},"geometry":{"type":"Point","coordinates":[116.8224061,39.7066964]}},{"type":"Feature","properties":{"NAME":"大羊村南","TEL":"联通","URL":"地面塔","ADDRESS1":"北京市通州区大羊村村南空地","ADDRESS2":"","CITY":"通州","ZIP":""},"geometry":{"type":"Point","coordinates":[116.797,39.693]}},{"type":"Feature","properties":{"NAME":"南堤寺","TEL":"联通","URL":"地面塔","ADDRESS1":"北京市通州区永乐店镇南堤寺西村南堤寺西村西南角京津城铁北300米鸭场","ADDRESS2":"","CITY":"通州","ZIP":""},"geometry":{"type":"Point","coordinates":[116.74695,39.69018]}},{"type":"Feature","properties":{"NAME":"满庄西","TEL":"移动","URL":"地面塔","ADDRESS1":"北京市通州区于家务乡满庄村西北侧无线机房","ADDRESS2":"","CITY":"通州","ZIP":""},"geometry":{"type":"Point","coordinates":[116.7205556,39.70472222]}},{"type":"Feature","properties":{"NAME":"柏福","TEL":"联通","URL":"地面塔","ADDRESS1":"北京市通州区马驹桥镇柏福村柏福村","ADDRESS2":"","CITY":"通州","ZIP":""},"geometry":{"type":"Point","coordinates":[116.666,39.7014]}},{"type":"Feature","properties":{"NAME":"大杜社南","TEL":"移动","URL":"地面塔","ADDRESS1":"北京市通州区马驹桥镇大杜社南空军基地无线机房","ADDRESS2":"","CITY":"通州","ZIP":""},"geometry":{"type":"Point","coordinates":[116.6519444,39.70833333]}},{"type":"Feature","properties":{"NAME":"鲁城村","TEL":"电信","URL":"地面塔","ADDRESS1":"北京市通州区鲁城村路口西北角","ADDRESS2":"","CITY":"通州","ZIP":""},"geometry":{"type":"Point","coordinates":[116.84838,39.67683]}},{"type":"Feature","properties":{"NAME":"大务村南","TEL":"电信","URL":"地面塔","ADDRESS1":"通州永乐店镇大务村西500米投资顾问中心蔬菜育苗基地院内","ADDRESS2":"","CITY":"通州","ZIP":""},"geometry":{"type":"Point","coordinates":[116.82047,39.66112]}},{"type":"Feature","properties":{"NAME":"德仁务","TEL":"联通","URL":"地面塔","ADDRESS1":"北京市通州区永乐店镇德仁务村德仁务后街大队","ADDRESS2":"","CITY":"通州","ZIP":""},"geometry":{"type":"Point","coordinates":[116.7786533,39.6755681]}},{"type":"Feature","properties":{"NAME":"京津主站九","TEL":"移动","URL":"地面塔","ADDRESS1":"北京市通州区京津高铁桥墩595无线机房","ADDRESS2":"","CITY":"通州","ZIP":""},"geometry":{"type":"Point","coordinates":[116.7561111,39.67888889]}},{"type":"Feature","properties":{"NAME":"聚富苑开发区","TEL":"联通","URL":"地面塔","ADDRESS1":"北京市通州区于家务回族乡聚富苑北环路通州区聚富苑开发区通州区聚富苑开发区南侧空地","ADDRESS2":"","CITY":"通州","ZIP":""},"geometry":{"type":"Point","coordinates":[116.697,39.675]}},{"type":"Feature","properties":{"NAME":"后伏村","TEL":"移动","URL":"地面塔","ADDRESS1":"北京市通州区于家务乡后伏村村委会院内","ADDRESS2":"","CITY":"通州","ZIP":""},"geometry":{"type":"Point","coordinates":[116.6694444,39.68305556]}},{"type":"Feature","properties":{"NAME":"京津永乐店","TEL":"联通","URL":"地面塔","ADDRESS1":"北京市通州区永乐店镇京津高速永乐店出口","ADDRESS2":"","CITY":"通州","ZIP":""},"geometry":{"type":"Point","coordinates":[116.81346,39.63382]}},{"type":"Feature","properties":{"NAME":"柴厂屯","TEL":"电信","URL":"地面塔","ADDRESS1":"北京市通州区永乐店镇柴厂屯乡柴厂屯村村北","ADDRESS2":"","CITY":"通州","ZIP":""},"geometry":{"type":"Point","coordinates":[116.764795,39.639218]}},{"type":"Feature","properties":{"NAME":"枣林","TEL":"联通","URL":"地面塔","ADDRESS1":"北京市通州区于家务镇枣林村枣林村东南角","ADDRESS2":"","CITY":"通州","ZIP":""},"geometry":{"type":"Point","coordinates":[116.728,39.657]}},{"type":"Feature","properties":{"NAME":"吴寺","TEL":"联通","URL":"地面塔","ADDRESS1":"北京市通州区于家务回族乡吴寺村","ADDRESS2":"","CITY":"通州","ZIP":""},"geometry":{"type":"Point","coordinates":[116.707,39.661]}},{"type":"Feature","properties":{"NAME":"兴隆庄","TEL":"移动","URL":"地面塔","ADDRESS1":"北京市通州区通州兴隆庄无线基站","ADDRESS2":"","CITY":"通州","ZIP":""},"geometry":{"type":"Point","coordinates":[116.8186111,39.62388889]}},{"type":"Feature","properties":{"NAME":"熬硝营","TEL":"联通","URL":"地面塔","ADDRESS1":"北京市通州区永乐店镇熬硝营村熬硝营村西林","ADDRESS2":"","CITY":"通州","ZIP":""},"geometry":{"type":"Point","coordinates":[116.762567,39.618675]}},{"type":"Feature","properties":{"NAME":"临沟屯","TEL":"联通","URL":"地面塔","ADDRESS1":"北京市通州区永乐店镇临沟村临沟村委会","ADDRESS2":"","CITY":"通州","ZIP":""},"geometry":{"type":"Point","coordinates":[116.730802,39.624677]}},{"type":"Feature","properties":{"NAME":"永乐开发区","TEL":"联通","URL":"地面塔","ADDRESS1":"北京市通州区永乐店镇永乐开发区","ADDRESS2":"","CITY":"通州","ZIP":""},"geometry":{"type":"Point","coordinates":[116.779583,39.596586]}},{"type":"Feature","properties":{"NAME":"东堡村","TEL":"移动","URL":"地面塔","ADDRESS1":"北京市通州区潞城镇东堡村村民委员会无线机房","ADDRESS2":"","CITY":"通州","ZIP":""},"geometry":{"type":"Point","coordinates":[116.7638889,39.89277778]}},{"type":"Feature","properties":{"NAME":"小马头","TEL":"电信","URL":"地面塔","ADDRESS1":"北京市通州区漷县镇小马头村空地","ADDRESS2":"","CITY":"通州","ZIP":""},"geometry":{"type":"Point","coordinates":[116.8239,39.7647]}},{"type":"Feature","properties":{"NAME":"东寺庄","TEL":"电信","URL":"地面塔","ADDRESS1":"北京市通州区漷县镇东寺庄村西","ADDRESS2":"","CITY":"通州","ZIP":""},"geometry":{"type":"Point","coordinates":[116.839835,39.747836]}},{"type":"Feature","properties":{"NAME":"漷县李辛庄","TEL":"移动","URL":"地面塔","ADDRESS1":"北京市通州区漷县镇李辛庄村","ADDRESS2":"","CITY":"通州","ZIP":""},"geometry":{"type":"Point","coordinates":[116.8505556,39.71833333]}},{"type":"Feature","properties":{"NAME":"梦溪雨宾馆","TEL":"YD","URL":"普通地面塔","ADDRESS1":"大兴梦溪雨KTV歌厅后院平房1","ADDRESS2":"","CITY":"大兴","ZIP":""},"geometry":{"type":"Point","coordinates":[116.443001,39.817541]}},{"type":"Feature","properties":{"NAME":"企业文化园","TEL":"LT","URL":"普通地面塔","ADDRESS1":"北京市大兴区博大路京沈高速入口文化园路口北6米东侧草坪","ADDRESS2":"","CITY":"大兴","ZIP":""},"geometry":{"type":"Point","coordinates":[116.490397,39.810862]}},{"type":"Feature","properties":{"NAME":"东方鸿宇","TEL":"YD","URL":"楼面抱杆","ADDRESS1":"大兴区旧宫镇郎成公司楼顶4","ADDRESS2":"","CITY":"大兴","ZIP":""},"geometry":{"type":"Point","coordinates":[116.438444,39.796944]}},{"type":"Feature","properties":{"NAME":"亦庄中体彩印","TEL":"YD","URL":"景观塔","ADDRESS1":"亦庄东环中路1号中体彩印办公楼路口西北角绿地1","ADDRESS2":"","CITY":"大兴","ZIP":""},"geometry":{"type":"Point","coordinates":[116.51791,39.79918]}},{"type":"Feature","properties":{"NAME":"泰河园","TEL":"DX","URL":"普通地面塔","ADDRESS1":"北京市大兴区泰和园三里小区","ADDRESS2":"","CITY":"大兴","ZIP":""},"geometry":{"type":"Point","coordinates":[116.493928,39.762861]}},{"type":"Feature","properties":{"NAME":"德茂实验场","TEL":"YD","URL":"普通地面塔","ADDRESS1":"大兴德茂庄向南德茂实验场内平房1","ADDRESS2":"","CITY":"大兴","ZIP":""},"geometry":{"type":"Point","coordinates":[116.430241,39.772931]}},{"type":"Feature","properties":{"NAME":"宇天顺","TEL":"YD","URL":"普通地面塔","ADDRESS1":"北京市大兴区宇顺村南二街无线机房","ADDRESS2":"","CITY":"大兴","ZIP":""},"geometry":{"type":"Point","coordinates":[116.397444,39.782917]}},{"type":"Feature","properties":{"NAME":"中国传媒大学","TEL":"LT","URL":"普通楼面塔","ADDRESS1":"北京市大兴区西红门镇兴和街中国传媒大学远程与继续教育学院","ADDRESS2":"","CITY":"大兴","ZIP":""},"geometry":{"type":"Point","coordinates":[116.35199,39.7832]}},{"type":"Feature","properties":{"NAME":"西红门消防队","TEL":"YD","URL":"普通地面塔","ADDRESS1":"大兴区西红门欣旺大街（474、377公交总站）院内南侧1","ADDRESS2":"","CITY":"大兴","ZIP":""},"geometry":{"type":"Point","coordinates":[116.32408,39.78141]}},{"type":"Feature","properties":{"NAME":"宏大南园","TEL":"LT","URL":"楼面抱杆","ADDRESS1":"北京市大兴区西红门镇宏大南路宏大南路小区4号楼楼顶","ADDRESS2":"","CITY":"大兴","ZIP":""},"geometry":{"type":"Point","coordinates":[116.32859,39.795637]}},{"type":"Feature","properties":{"NAME":"马家屯村","TEL":"YD","URL":"普通地面塔","ADDRESS1":"大兴榆垡镇马家屯村东侧杆塔1","ADDRESS2":"","CITY":"大兴","ZIP":""},"geometry":{"type":"Point","coordinates":[116.342261,39.460431]}},{"type":"Feature","properties":{"NAME":"东押堤","TEL":"LT","URL":"普通地面塔","ADDRESS1":"北京市大兴区榆垡镇朱押路东押堤村村东空地","ADDRESS2":"","CITY":"大兴","ZIP":""},"geometry":{"type":"Point","coordinates":[116.38301,39.46101]}},{"type":"Feature","properties":{"NAME":"西押堤","TEL":"YD","URL":"普通地面塔","ADDRESS1":"北京市大兴区榆垡镇西押堤村民委员会1F","ADDRESS2":"","CITY":"大兴","ZIP":""},"geometry":{"type":"Point","coordinates":[116.394151,39.459301]}},{"type":"Feature","properties":{"NAME":"崔指挥营","TEL":"YD","URL":"普通地面塔","ADDRESS1":"大兴榆垡镇崔指挥营村1","ADDRESS2":"","CITY":"大兴","ZIP":""},"geometry":{"type":"Point","coordinates":[116.431944,39.454444]}},{"type":"Feature","properties":{"NAME":"区十里铺","TEL":"LT","URL":"普通地面塔","ADDRESS1":"北京市大兴区榆垡镇十里铺十条","ADDRESS2":"","CITY":"大兴","ZIP":""},"geometry":{"type":"Point","coordinates":[116.310523,39.477952]}},{"type":"Feature","properties":{"NAME":"濒危动物中心","TEL":"YD","URL":"普通地面塔","ADDRESS1":"北京市大兴区榆垡镇北京野生动物园内移动机房单一平房无线机房","ADDRESS2":"","CITY":"大兴","ZIP":""},"geometry":{"type":"Point","coordinates":[116.3277,39.49084]}},{"type":"Feature","properties":{"NAME":"崔庄屯","TEL":"LT","URL":"普通地面塔","ADDRESS1":"北京市大兴区榆垡镇崔庄屯村村南空地","ADDRESS2":"","CITY":"大兴","ZIP":""},"geometry":{"type":"Point","coordinates":[116.36401,39.47401]}},{"type":"Feature","properties":{"NAME":"刘各庄","TEL":"LT","URL":"普通地面塔","ADDRESS1":"北京市大兴区榆垡镇刘各庄村空地处","ADDRESS2":"","CITY":"大兴","ZIP":""},"geometry":{"type":"Point","coordinates":[116.41201,39.47401]}},{"type":"Feature","properties":{"NAME":"求贤村","TEL":"YD","URL":"普通地面塔","ADDRESS1":"大兴区榆垡镇求贤村村内铁塔1","ADDRESS2":"","CITY":"大兴","ZIP":""},"geometry":{"type":"Point","coordinates":[116.277291,39.505021]}},{"type":"Feature","properties":{"NAME":"榆垡","TEL":"YD","URL":"普通地面塔","ADDRESS1":"大兴区榆垡镇榆垡五队江源街北头西侧1","ADDRESS2":"","CITY":"大兴","ZIP":""},"geometry":{"type":"Point","coordinates":[116.318611,39.517223]}},{"type":"Feature","properties":{"NAME":"太子务村","TEL":"YD","URL":"普通地面塔","ADDRESS1":"北京市大兴区太子务村委会南移动机房单一平房无线机房","ADDRESS2":"","CITY":"大兴","ZIP":""},"geometry":{"type":"Point","coordinates":[116.335561,39.508781]}},{"type":"Feature","properties":{"NAME":"南各庄","TEL":"DX","URL":"普通地面塔","ADDRESS1":"北京市大兴县万创苑科贸有限公司南各庄粮库院内","ADDRESS2":"","CITY":"大兴","ZIP":""},"geometry":{"type":"Point","coordinates":[116.387732,39.503025]}},{"type":"Feature","properties":{"NAME":"西麻各庄","TEL":"DX","URL":"普通地面塔","ADDRESS1":"北京市大兴区西麻各庄","ADDRESS2":"","CITY":"大兴","ZIP":""},"geometry":{"type":"Point","coordinates":[116.24877,39.53518]}},{"type":"Feature","properties":{"NAME":"东麻各庄","TEL":"YD","URL":"普通地面塔","ADDRESS1":"北京市大兴区榆垡镇东麻各庄村经济合作社1","ADDRESS2":"","CITY":"大兴","ZIP":""},"geometry":{"type":"Point","coordinates":[116.270031,39.541701]}},{"type":"Feature","properties":{"NAME":"西翁各庄","TEL":"YD","URL":"普通地面塔","ADDRESS1":"大兴区榆垡镇西翁各庄村委会西420米1","ADDRESS2":"","CITY":"大兴","ZIP":""},"geometry":{"type":"Point","coordinates":[116.304726,39.532776]}},{"type":"Feature","properties":{"NAME":"西梁各庄村","TEL":"YD","URL":"普通地面塔","ADDRESS1":"大兴礼贤镇西梁各庄村蓝杆塔1","ADDRESS2":"","CITY":"大兴","ZIP":""},"geometry":{"type":"Point","coordinates":[116.348061,39.525833]}},{"type":"Feature","properties":{"NAME":"西里河村","TEL":"YD","URL":"普通地面塔","ADDRESS1":"大兴礼贤镇西里河村1","ADDRESS2":"","CITY":"大兴","ZIP":""},"geometry":{"type":"Point","coordinates":[116.390277,39.539722]}},{"type":"Feature","properties":{"NAME":"辛家安","TEL":"YD","URL":"普通地面塔","ADDRESS1":"大兴礼贤镇辛家安村北1","ADDRESS2":"","CITY":"大兴","ZIP":""},"geometry":{"type":"Point","coordinates":[116.414561,39.531241]}},{"type":"Feature","properties":{"NAME":"荆家务村","TEL":"YD","URL":"普通地面塔","ADDRESS1":"大兴礼贤镇荆家务村村委会院内1","ADDRESS2":"","CITY":"大兴","ZIP":""},"geometry":{"type":"Point","coordinates":[116.439161,39.536667]}},{"type":"Feature","properties":{"NAME":"区郭家场","TEL":"LT","URL":"普通地面塔","ADDRESS1":"北京市大兴区榆垡镇郭家场村","ADDRESS2":"","CITY":"大兴","ZIP":""},"geometry":{"type":"Point","coordinates":[116.27201,39.56201]}},{"type":"Feature","properties":{"NAME":"西黄垡","TEL":"YD","URL":"普通地面塔","ADDRESS1":"大兴榆垡镇西黄垡村北侧杆塔1","ADDRESS2":"","CITY":"大兴","ZIP":""},"geometry":{"type":"Point","coordinates":[116.313888,39.566388]}},{"type":"Feature","properties":{"NAME":"贺北村","TEL":"LT","URL":"普通地面塔","ADDRESS1":"北京市大兴区礼贤镇贺北村贺北村委会院内联通机房","ADDRESS2":"","CITY":"大兴","ZIP":""},"geometry":{"type":"Point","coordinates":[116.35901,39.56501]}},{"type":"Feature","properties":{"NAME":"前杨各庄","TEL":"LT","URL":"普通地面塔","ADDRESS1":"大兴榆垡镇前杨各庄村","ADDRESS2":"","CITY":"大兴","ZIP":""},"geometry":{"type":"Point","coordinates":[116.38001,39.55601]}},{"type":"Feature","properties":{"NAME":"紫各庄村","TEL":"YD","URL":"普通地面塔","ADDRESS1":"北京市大兴区礼贤镇紫各庄村村民委员会无线机房","ADDRESS2":"","CITY":"大兴","ZIP":""},"geometry":{"type":"Point","coordinates":[116.409451,39.557511]}},{"type":"Feature","properties":{"NAME":"礼贤中学","TEL":"LT","URL":"普通地面塔","ADDRESS1":"大兴礼贤镇民族中学院内1","ADDRESS2":"","CITY":"大兴","ZIP":""},"geometry":{"type":"Point","coordinates":[116.45588,39.55833]}},{"type":"Feature","properties":{"NAME":"田家营村委会","TEL":"LT","URL":"普通地面塔","ADDRESS1":"大兴礼贤镇田家营村委会","ADDRESS2":"","CITY":"大兴","ZIP":""},"geometry":{"type":"Point","coordinates":[116.49064,39.55963]}},{"type":"Feature","properties":{"NAME":"赵村","TEL":"YD","URL":"普通楼面塔","ADDRESS1":"大兴区定福庄赵村永定河警务工作站","ADDRESS2":"","CITY":"大兴","ZIP":""},"geometry":{"type":"Point","coordinates":[116.222781,39.587511]}},{"type":"Feature","properties":{"NAME":"常各庄","TEL":"LT","URL":"普通地面塔","ADDRESS1":"大兴庞各庄镇常各庄村1","ADDRESS2":"","CITY":"大兴","ZIP":""},"geometry":{"type":"Point","coordinates":[116.276951,39.581387]}},{"type":"Feature","properties":{"NAME":"西黑垡村","TEL":"YD","URL":"普通地面塔","ADDRESS1":"北京市大兴区庞各庄镇原西黑垡村村委会内移动机房单一平房无线机房","ADDRESS2":"","CITY":"大兴","ZIP":""},"geometry":{"type":"Point","coordinates":[116.301391,39.580011]}},{"type":"Feature","properties":{"NAME":"西瓜展馆","TEL":"YD","URL":"普通地面塔","ADDRESS1":"大兴庞各庄镇西甜瓜基地1","ADDRESS2":"","CITY":"大兴","ZIP":""},"geometry":{"type":"Point","coordinates":[116.341049,39.591434]}},{"type":"Feature","properties":{"NAME":"加禄垡","TEL":"LT","URL":"普通地面塔","ADDRESS1":"大兴加禄垡村","ADDRESS2":"","CITY":"大兴","ZIP":""},"geometry":{"type":"Point","coordinates":[116.380963,39.589355]}},{"type":"Feature","properties":{"NAME":"龙头村","TEL":"YD","URL":"普通地面塔","ADDRESS1":"大兴礼贤镇龙头村1","ADDRESS2":"","CITY":"大兴","ZIP":""},"geometry":{"type":"Point","coordinates":[116.408671,39.586511]}},{"type":"Feature","properties":{"NAME":"河北头","TEL":"LT","URL":"普通地面塔","ADDRESS1":"大兴区礼贤镇河北头村","ADDRESS2":"","CITY":"大兴","ZIP":""},"geometry":{"type":"Point","coordinates":[116.45901,39.57601]}},{"type":"Feature","properties":{"NAME":"西白塔村南","TEL":"YD","URL":"普通地面塔","ADDRESS1":"大兴区安定镇西白塔村南养殖种猪场1","ADDRESS2":"","CITY":"大兴","ZIP":""},"geometry":{"type":"Point","coordinates":[116.476201,39.591951]}},{"type":"Feature","properties":{"NAME":"佟营村","TEL":"YD","URL":"普通地面塔","ADDRESS1":"北京市大兴区安定镇佟营村北京金鹏飞越畜牧养殖专业合作社院内1","ADDRESS2":"","CITY":"大兴","ZIP":""},"geometry":{"type":"Point","coordinates":[116.511931,39.588441]}},{"type":"Feature","properties":{"NAME":"保安庄","TEL":"YD","URL":"普通地面塔","ADDRESS1":"大兴区定福庄保安庄村内1","ADDRESS2":"","CITY":"大兴","ZIP":""},"geometry":{"type":"Point","coordinates":[116.241031,39.617321]}},{"type":"Feature","properties":{"NAME":"定福庄","TEL":"DX","URL":"普通地面塔","ADDRESS1":"北京市大兴区定福庄","ADDRESS2":"","CITY":"大兴","ZIP":""},"geometry":{"type":"Point","coordinates":[116.271583,39.612299]}},{"type":"Feature","properties":{"NAME":"薛营村委会","TEL":"YD","URL":"普通地面塔","ADDRESS1":"大兴区庞各庄镇薛营村1","ADDRESS2":"","CITY":"大兴","ZIP":""},"geometry":{"type":"Point","coordinates":[116.316521,39.612031]}},{"type":"Feature","properties":{"NAME":"东义堂村","TEL":"YD","URL":"普通地面塔","ADDRESS1":"北京市大兴区庞各庄东义堂村移动机房单一平房无线机房","ADDRESS2":"","CITY":"大兴","ZIP":""},"geometry":{"type":"Point","coordinates":[116.338088,39.608401]}},{"type":"Feature","properties":{"NAME":"魏善庄西沙窝","TEL":"YD","URL":"普通地面塔","ADDRESS1":"大兴魏善庄镇西沙窝村1","ADDRESS2":"","CITY":"大兴","ZIP":""},"geometry":{"type":"Point","coordinates":[116.395751,39.608331]}},{"type":"Feature","properties":{"NAME":"半壁店","TEL":"YD","URL":"普通地面塔","ADDRESS1":"北京市大兴区魏善庄镇半壁店电信局院内移动机房单一平房无线机房","ADDRESS2":"","CITY":"大兴","ZIP":""},"geometry":{"type":"Point","coordinates":[116.419391,39.614931]}},{"type":"Feature","properties":{"NAME":"后辛房","TEL":"YD","URL":"普通地面塔","ADDRESS1":"大兴安定镇后辛房村铁塔1","ADDRESS2":"","CITY":"大兴","ZIP":""},"geometry":{"type":"Point","coordinates":[116.458761,39.60499]}},{"type":"Feature","properties":{"NAME":"安定镇","TEL":"YD","URL":"普通地面塔","ADDRESS1":"大兴安定镇电信局1","ADDRESS2":"","CITY":"大兴","ZIP":""},"geometry":{"type":"Point","coordinates":[116.490911,39.616601]}},{"type":"Feature","properties":{"NAME":"马坊村","TEL":"YD","URL":"普通地面塔","ADDRESS1":"大兴区安定镇马坊村东侧铁塔1","ADDRESS2":"","CITY":"大兴","ZIP":""},"geometry":{"type":"Point","coordinates":[116.5364,39.61523]}},{"type":"Feature","properties":{"NAME":"于家务","TEL":"LT","URL":"普通地面塔","ADDRESS1":"北京市大兴区安定镇于家务村村南空地","ADDRESS2":"","CITY":"大兴","ZIP":""},"geometry":{"type":"Point","coordinates":[116.553021,39.615302]}},{"type":"Feature","properties":{"NAME":"前管营村","TEL":"YD","URL":"普通地面塔","ADDRESS1":"大兴北臧村镇前管营村1","ADDRESS2":"","CITY":"大兴","ZIP":""},"geometry":{"type":"Point","coordinates":[116.232801,39.641861]}},{"type":"Feature","properties":{"NAME":"北高各庄","TEL":"YD","URL":"普通地面塔","ADDRESS1":"大兴区北臧村镇北高各庄村1","ADDRESS2":"","CITY":"大兴","ZIP":""},"geometry":{"type":"Point","coordinates":[116.272241,39.639491]}},{"type":"Feature","properties":{"NAME":"东中堡村","TEL":"YD","URL":"普通地面塔","ADDRESS1":"北京市大兴区庞各庄西瓜销售中心移动机房单一平房无线机房","ADDRESS2":"","CITY":"大兴","ZIP":""},"geometry":{"type":"Point","coordinates":[116.318621,39.638121]}},{"type":"Feature","properties":{"NAME":"四各庄","TEL":"YD","URL":"普通地面塔","ADDRESS1":"北京市大兴区魏善庄镇四各庄村移动机房单一平房无线机房","ADDRESS2":"","CITY":"大兴","ZIP":""},"geometry":{"type":"Point","coordinates":[116.350661,39.637541]}},{"type":"Feature","properties":{"NAME":"岳家务村","TEL":"YD","URL":"普通地面塔","ADDRESS1":"北京市大兴区魏善庄镇岳家务村移动机房单一平房无线机房","ADDRESS2":"","CITY":"大兴","ZIP":""},"geometry":{"type":"Point","coordinates":[116.378381,39.641351]}},{"type":"Feature","properties":{"NAME":"后苑上村","TEL":"LT","URL":"普通地面塔","ADDRESS1":"大兴区魏善庄后苑上村1","ADDRESS2":"","CITY":"大兴","ZIP":""},"geometry":{"type":"Point","coordinates":[116.4064,39.6475]}},{"type":"Feature","properties":{"NAME":"郑福庄HL","TEL":"YD","URL":"普通地面塔","ADDRESS1":"北京市大兴区安定镇郑福庄村移动机房平房无线机房","ADDRESS2":"","CITY":"大兴","ZIP":""},"geometry":{"type":"Point","coordinates":[116.48574,39.633793]}},{"type":"Feature","properties":{"NAME":"站上村","TEL":"DX","URL":"普通地面塔","ADDRESS1":"北京市大兴区安定镇站上村凤才养殖场院内","ADDRESS2":"","CITY":"大兴","ZIP":""},"geometry":{"type":"Point","coordinates":[116.51478,39.634453]}},{"type":"Feature","properties":{"NAME":"和顺场","TEL":"YD","URL":"普通地面塔","ADDRESS1":"北京市大兴区长子营镇和顺场村无线机房","ADDRESS2":"","CITY":"大兴","ZIP":""},"geometry":{"type":"Point","coordinates":[116.566238,39.635738]}},{"type":"Feature","properties":{"NAME":"朱庄","TEL":"YD","URL":"普通地面塔","ADDRESS1":"北京市大兴区长子营镇人民政府无线机房","ADDRESS2":"","CITY":"大兴","ZIP":""},"geometry":{"type":"Point","coordinates":[116.587776,39.641666]}},{"type":"Feature","properties":{"NAME":"广佛寺村","TEL":"YD","URL":"普通地面塔","ADDRESS1":"北京市大兴区采育镇广佛寺村北1F","ADDRESS2":"","CITY":"大兴","ZIP":""},"geometry":{"type":"Point","coordinates":[116.629351,39.621596]}},{"type":"Feature","properties":{"NAME":"潘铁营村","TEL":"YD","URL":"普通地面塔","ADDRESS1":"大兴潘铁营村1","ADDRESS2":"","CITY":"大兴","ZIP":""},"geometry":{"type":"Point","coordinates":[116.66275,39.62709]}},{"type":"Feature","properties":{"NAME":"康营村南","TEL":"YD","URL":"普通地面塔","ADDRESS1":"北京市大兴区采育镇康营村南侧","ADDRESS2":"","CITY":"大兴","ZIP":""},"geometry":{"type":"Point","coordinates":[116.672591,39.617281]}},{"type":"Feature","properties":{"NAME":"张各庄","TEL":"YD","URL":"普通地面塔","ADDRESS1":"北京市大兴区大兴张各庄","ADDRESS2":"","CITY":"大兴","ZIP":""},"geometry":{"type":"Point","coordinates":[116.706795,39.62579]}},{"type":"Feature","properties":{"NAME":"西大营村","TEL":"YD","URL":"普通地面塔","ADDRESS1":"大兴区北臧村镇西大营村西1","ADDRESS2":"","CITY":"大兴","ZIP":""},"geometry":{"type":"Point","coordinates":[116.230277,39.666388]}},{"type":"Feature","properties":{"NAME":"北藏村","TEL":"YD","URL":"普通地面塔","ADDRESS1":"大兴北藏村1","ADDRESS2":"","CITY":"大兴","ZIP":""},"geometry":{"type":"Point","coordinates":[116.284491,39.674861]}},{"type":"Feature","properties":{"NAME":"第五职高","TEL":"LT","URL":"普通楼面塔","ADDRESS1":"大兴区庞各庄第五职高最南面楼","ADDRESS2":"","CITY":"大兴","ZIP":""},"geometry":{"type":"Point","coordinates":[116.31366,39.67461]}},{"type":"Feature","properties":{"NAME":"狼各庄东村","TEL":"YD","URL":"普通地面塔","ADDRESS1":"大兴区黄村镇狼各庄东村回民公墓1","ADDRESS2":"","CITY":"大兴","ZIP":""},"geometry":{"type":"Point","coordinates":[116.340004,39.66549]}},{"type":"Feature","properties":{"NAME":"东枣林村","TEL":"YD","URL":"普通地面塔","ADDRESS1":"大兴魏善庄镇东枣林村北1","ADDRESS2":"","CITY":"大兴","ZIP":""},"geometry":{"type":"Point","coordinates":[116.374601,39.666371]}},{"type":"Feature","properties":{"NAME":"河南辛庄村南","TEL":"LT","URL":"普通地面塔","ADDRESS1":"大兴河南辛庄村南","ADDRESS2":"","CITY":"大兴","ZIP":""},"geometry":{"type":"Point","coordinates":[116.4483,39.63638]}},{"type":"Feature","properties":{"NAME":"王各庄","TEL":"LT","URL":"普通地面塔","ADDRESS1":"大兴区庞各庄镇王各庄村","ADDRESS2":"","CITY":"大兴","ZIP":""},"geometry":{"type":"Point","coordinates":[116.43401,39.67001]}},{"type":"Feature","properties":{"NAME":"崔庄一村","TEL":"YD","URL":"普通地面塔","ADDRESS1":"北京市大兴区魏善庄镇崔庄一村村委会内移动机房单一平房无线机房","ADDRESS2":"","CITY":"大兴","ZIP":""},"geometry":{"type":"Point","coordinates":[116.467264,39.658593]}},{"type":"Feature","properties":{"NAME":"东孙村","TEL":"YD","URL":"景观塔","ADDRESS1":"大兴区青云店镇东孙村","ADDRESS2":"","CITY":"大兴","ZIP":""},"geometry":{"type":"Point","coordinates":[116.501781,39.660721]}},{"type":"Feature","properties":{"NAME":"西鲍辛庄村","TEL":"YD","URL":"普通地面塔","ADDRESS1":"大兴西鲍辛庄村西南1","ADDRESS2":"","CITY":"大兴","ZIP":""},"geometry":{"type":"Point","coordinates":[116.5281,39.657433]}},{"type":"Feature","properties":{"NAME":"马凤岗","TEL":"YD","URL":"普通地面塔","ADDRESS1":"大兴区青云店镇马凤岗村养牛厂院内蓝杆塔1","ADDRESS2":"","CITY":"大兴","ZIP":""},"geometry":{"type":"Point","coordinates":[116.552917,39.652784]}},{"type":"Feature","properties":{"NAME":"下黎城村","TEL":"YD","URL":"普通地面塔","ADDRESS1":"北京市大兴区下黎城村西北采辛路","ADDRESS2":"","CITY":"大兴","ZIP":""},"geometry":{"type":"Point","coordinates":[116.61267,39.65243]}},{"type":"Feature","properties":{"NAME":"采育葡萄园","TEL":"YD","URL":"普通地面塔","ADDRESS1":"大兴采育葡萄园内东侧1","ADDRESS2":"","CITY":"大兴","ZIP":""},"geometry":{"type":"Point","coordinates":[116.64246,39.66058]}},{"type":"Feature","properties":{"NAME":"采育镇","TEL":"YD","URL":"普通地面塔","ADDRESS1":"大兴区采育镇东庄村东侧1","ADDRESS2":"","CITY":"大兴","ZIP":""},"geometry":{"type":"Point","coordinates":[116.670555,39.660277]}},{"type":"Feature","properties":{"NAME":"六合庄","TEL":"LT","URL":"普通地面塔","ADDRESS1":"北京市大兴区黄村镇六合庄村村西空地","ADDRESS2":"","CITY":"大兴","ZIP":""},"geometry":{"type":"Point","coordinates":[116.24225,39.70131]}},{"type":"Feature","properties":{"NAME":"罗奇营","TEL":"YD","URL":"普通地面塔","ADDRESS1":"大兴区北藏村镇罗奇营电信局1F","ADDRESS2":"","CITY":"大兴","ZIP":""},"geometry":{"type":"Point","coordinates":[116.295947,39.696107]}},{"type":"Feature","properties":{"NAME":"埝坛村东北","TEL":"YD","URL":"普通地面塔","ADDRESS1":"北方华彩工贸公司1","ADDRESS2":"","CITY":"大兴","ZIP":""},"geometry":{"type":"Point","coordinates":[116.315701,39.690941]}},{"type":"Feature","properties":{"NAME":"京南物流","TEL":"YD","URL":"普通地面塔","ADDRESS1":"大兴区大庄桥东天河北路百利威京南物流基地1","ADDRESS2":"","CITY":"大兴","ZIP":""},"geometry":{"type":"Point","coordinates":[116.34639,39.692223]}},{"type":"Feature","properties":{"NAME":"吴庄村东","TEL":"YD","URL":"普通地面塔","ADDRESS1":"大兴吴庄村东京兴食品厂1","ADDRESS2":"","CITY":"大兴","ZIP":""},"geometry":{"type":"Point","coordinates":[116.3951,39.68367]}},{"type":"Feature","properties":{"NAME":"羊坊村","TEL":"YD","URL":"普通地面塔","ADDRESS1":"大兴区魏善庄镇羊坊村1","ADDRESS2":"","CITY":"大兴","ZIP":""},"geometry":{"type":"Point","coordinates":[116.421201,39.688171]}},{"type":"Feature","properties":{"NAME":"青云店沙子营","TEL":"LT","URL":"普通地面塔","ADDRESS1":"北京市大兴区青云店镇青魏路沙子营村煤场旁","ADDRESS2":"","CITY":"大兴","ZIP":""},"geometry":{"type":"Point","coordinates":[116.47122,39.68476]}},{"type":"Feature","properties":{"NAME":"青云店北","TEL":"YD","URL":"普通地面塔","ADDRESS1":"大兴区青云店北侧1","ADDRESS2":"","CITY":"大兴","ZIP":""},"geometry":{"type":"Point","coordinates":[116.500141,39.682401]}},{"type":"Feature","properties":{"NAME":"孝义营村","TEL":"YD","URL":"普通地面塔","ADDRESS1":"大兴区青云店镇孝义营村北1","ADDRESS2":"","CITY":"大兴","ZIP":""},"geometry":{"type":"Point","coordinates":[116.540276,39.690834]}},{"type":"Feature","properties":{"NAME":"郑二营","TEL":"YD","URL":"普通地面塔","ADDRESS1":"北京市大兴区郑二营无线基站","ADDRESS2":"","CITY":"大兴","ZIP":""},"geometry":{"type":"Point","coordinates":[116.57667,39.68336]}},{"type":"Feature","properties":{"NAME":"安场村","TEL":"LT","URL":"普通地面塔","ADDRESS1":"北京市大兴区安定镇安场村西华懋伦休闲中心","ADDRESS2":"","CITY":"大兴","ZIP":""},"geometry":{"type":"Point","coordinates":[116.614591,39.686211]}},{"type":"Feature","properties":{"NAME":"孙庄村","TEL":"YD","URL":"普通地面塔","ADDRESS1":"大兴孙庄村-基站机房1","ADDRESS2":"","CITY":"大兴","ZIP":""},"geometry":{"type":"Point","coordinates":[116.62925,39.68158]}},{"type":"Feature","properties":{"NAME":"鹅房村南","TEL":"YD","URL":"普通地面塔","ADDRESS1":"大兴区黄村镇鹅房村南1","ADDRESS2":"","CITY":"大兴","ZIP":""},"geometry":{"type":"Point","coordinates":[116.252531,39.737171]}},{"type":"Feature","properties":{"NAME":"后辛庄花卉园","TEL":"YD","URL":"普通地面塔","ADDRESS1":"大兴后辛庄花卉园1","ADDRESS2":"","CITY":"大兴","ZIP":""},"geometry":{"type":"Point","coordinates":[116.26981,39.72423]}},{"type":"Feature","properties":{"NAME":"少年宫","TEL":"LT","URL":"楼面抱杆","ADDRESS1":"北京市大兴区黄村镇义和庄北侧大兴少年宫东南角","ADDRESS2":"","CITY":"大兴","ZIP":""},"geometry":{"type":"Point","coordinates":[116.317143,39.720511]}},{"type":"Feature","properties":{"NAME":"海子角村东","TEL":"YD","URL":"普通楼面塔","ADDRESS1":"北京市大兴区黄村镇海子角中央军委电台内中央军委电台8层无线机房","ADDRESS2":"","CITY":"大兴","ZIP":""},"geometry":{"type":"Point","coordinates":[116.35333,39.713333]}},{"type":"Feature","properties":{"NAME":"团河劳教所","TEL":"LT","URL":"普通地面塔","ADDRESS1":"大兴区团河劳教所南厂房内","ADDRESS2":"","CITY":"大兴","ZIP":""},"geometry":{"type":"Point","coordinates":[116.37601,39.73001]}},{"type":"Feature","properties":{"NAME":"东磁各庄村","TEL":"YD","URL":"普通地面塔","ADDRESS1":"大兴黄村镇东磁各庄村1","ADDRESS2":"","CITY":"大兴","ZIP":""},"geometry":{"type":"Point","coordinates":[116.416691,39.708651]}},{"type":"Feature","properties":{"NAME":"小铺头村","TEL":"YD","URL":"普通地面塔","ADDRESS1":"大兴区垡上开发区西侧小铺头村1F","ADDRESS2":"","CITY":"大兴","ZIP":""},"geometry":{"type":"Point","coordinates":[116.456,39.717503]}},{"type":"Feature","properties":{"NAME":"芦城工业区","TEL":"DX","URL":"普通地面塔","ADDRESS1":"北京市大兴区北京远程花卉苗木有限公司院内","ADDRESS2":"","CITY":"大兴","ZIP":""},"geometry":{"type":"Point","coordinates":[116.261627,39.759443]}},{"type":"Feature","properties":{"NAME":"东芦城","TEL":"DX","URL":"普通地面塔","ADDRESS1":"北京市大兴区东芦城村京沪高铁旁空地","ADDRESS2":"","CITY":"大兴","ZIP":""},"geometry":{"type":"Point","coordinates":[116.297426,39.75119]}},{"type":"Feature","properties":{"NAME":"艺苑房地产","TEL":"YD","URL":"普通地面塔","ADDRESS1":"大兴兴业路55号院1","ADDRESS2":"","CITY":"大兴","ZIP":""},"geometry":{"type":"Point","coordinates":[116.315138,39.743194]}},{"type":"Feature","properties":{"NAME":"新安里北","TEL":"YD","URL":"普通楼面塔","ADDRESS1":"北京市大兴区黄村镇新安里S1号楼三层楼顶天线1","ADDRESS2":"","CITY":"大兴","ZIP":""},"geometry":{"type":"Point","coordinates":[116.349131,39.740651]}},{"type":"Feature","properties":{"NAME":"团忠路西侧","TEL":"YD","URL":"普通地面塔","ADDRESS1":"大兴区西红门镇团河南村村北1","ADDRESS2":"","CITY":"大兴","ZIP":""},"geometry":{"type":"Point","coordinates":[116.391912,39.751243]}},{"type":"Feature","properties":{"NAME":"北普陀","TEL":"LT","URL":"普通地面塔","ADDRESS1":"北京市大兴区瀛海镇同新庄村村南空地","ADDRESS2":"","CITY":"大兴","ZIP":""},"geometry":{"type":"Point","coordinates":[116.437854,39.742193]}},{"type":"Feature","properties":{"NAME":"清源东路","TEL":"LT","URL":"普通地面塔","ADDRESS1":"大兴清源东路南侧房车租放场内","ADDRESS2":"","CITY":"大兴","ZIP":""},"geometry":{"type":"Point","coordinates":[116.475,39.7421]}},{"type":"Feature","properties":{"NAME":"亦庄奔驰基地","TEL":"DX","URL":"普通地面塔","ADDRESS1":"北京市大兴亦庄奔驰基地东门空地","ADDRESS2":"","CITY":"大兴","ZIP":""},"geometry":{"type":"Point","coordinates":[116.513127,39.741632]}},{"type":"Feature","properties":{"NAME":"长子营开发区","TEL":"YD","URL":"普通地面塔","ADDRESS1":"北京市大兴区长子营开发区北留民营路","ADDRESS2":"","CITY":"大兴","ZIP":""},"geometry":{"type":"Point","coordinates":[116.56812,39.70591]}},{"type":"Feature","properties":{"NAME":"李家务","TEL":"YD","URL":"普通地面塔","ADDRESS1":"大兴区李家务村南侧机房1","ADDRESS2":"","CITY":"大兴","ZIP":""},"geometry":{"type":"Point","coordinates":[116.606661,39.702831]}},{"type":"Feature","properties":{"NAME":"北辛庄村东北","TEL":"YD","URL":"景观塔","ADDRESS1":"大兴北辛庄村东北1F","ADDRESS2":"","CITY":"大兴","ZIP":""},"geometry":{"type":"Point","coordinates":[116.636284,39.709152]}},{"type":"Feature","properties":{"NAME":"西庄店村","TEL":"铁塔","URL":"灯杆景观塔","ADDRESS1":"丰台沙羊路西庄店村西侧","ADDRESS2":"","CITY":"丰台","ZIP":""},"geometry":{"type":"Point","coordinates":[116.084482,39.836123]}},{"type":"Feature","properties":{"NAME":"青龙湖公园","TEL":"铁塔","URL":"普通楼面塔","ADDRESS1":"青龙湖公园北侧美高美酒店配套公寓3号楼","ADDRESS2":"","CITY":"丰台","ZIP":""},"geometry":{"type":"Point","coordinates":[116.083772,39.808083]}},{"type":"Feature","properties":{"NAME":"总后丰台仓库","TEL":"铁塔","URL":"楼面抱杆","ADDRESS1":"北京丰台区东安街头条19号院总后丰台仓库水塔","ADDRESS2":"","CITY":"丰台","ZIP":""},"geometry":{"type":"Point","coordinates":[116.26846,39.85538]}},{"type":"Feature","properties":{"NAME":"北京戏院","TEL":"铁塔","URL":"楼面抱杆","ADDRESS1":"丰台区马家堡中路马家堡西里小区4号楼","ADDRESS2":"","CITY":"丰台","ZIP":""},"geometry":{"type":"Point","coordinates":[116.372349,39.85435]}},{"type":"Feature","properties":{"NAME":"角禾小区","TEL":"铁塔","URL":"普通楼面塔","ADDRESS1":"北京市丰台区马家堡西路名流未来大厦","ADDRESS2":"","CITY":"丰台","ZIP":""},"geometry":{"type":"Point","coordinates":[116.36517,39.83281]}},{"type":"Feature","properties":{"NAME":"南苑公园","TEL":"铁塔","URL":"普通楼面塔","ADDRESS1":"北京市丰台区南苑愧房路印制厂二楼","ADDRESS2":"","CITY":"丰台","ZIP":""},"geometry":{"type":"Point","coordinates":[116.37024,39.80517]}},{"type":"Feature","properties":{"NAME":"窑窝村","TEL":"铁塔","URL":"灯杆景观塔","ADDRESS1":"北京市丰台区久敬佳园北门","ADDRESS2":"","CITY":"丰台","ZIP":""},"geometry":{"type":"Point","coordinates":[116.402801,39.820358]}},{"type":"Feature","properties":{"NAME":"建邦华府","TEL":"铁塔","URL":"普通楼面塔","ADDRESS1":"北京市丰台区建邦华府","ADDRESS2":"","CITY":"丰台","ZIP":""},"geometry":{"type":"Point","coordinates":[116.40888,39.849211]}},{"type":"Feature","properties":{"NAME":"城外诚北","TEL":"铁塔","URL":"普通楼面塔","ADDRESS1":"北京市丰台区成寿寺路23号楼","ADDRESS2":"","CITY":"丰台","ZIP":""},"geometry":{"type":"Point","coordinates":[116.4384183,39.8505089]}},{"type":"Feature","properties":{"NAME":"锐波化工","TEL":"联通","URL":"","ADDRESS1":"丰台区辛庄1号北京东方锐波化工厂办公楼","ADDRESS2":"","CITY":"丰台","ZIP":""},"geometry":{"type":"Point","coordinates":[116.12099,39.8656]}},{"type":"Feature","properties":{"NAME":"怪村车队","TEL":"联通","URL":"","ADDRESS1":"丰台区怪村村民学校","ADDRESS2":"","CITY":"丰台","ZIP":""},"geometry":{"type":"Point","coordinates":[116.11491,39.79956]}},{"type":"Feature","properties":{"NAME":"沙锅村","TEL":"联通","URL":"","ADDRESS1":"","ADDRESS2":"","CITY":"丰台","ZIP":""},"geometry":{"type":"Point","coordinates":[116.11126,39.83209]}},{"type":"Feature","properties":{"NAME":"王庄中学","TEL":"联通","URL":"","ADDRESS1":"无","ADDRESS2":"","CITY":"丰台","ZIP":""},"geometry":{"type":"Point","coordinates":[116.15901,39.77926]}},{"type":"Feature","properties":{"NAME":"云岗东路","TEL":"联通","URL":"","ADDRESS1":"丰台区云岗东路5号","ADDRESS2":"","CITY":"丰台","ZIP":""},"geometry":{"type":"Point","coordinates":[116.16101,39.80801]}},{"type":"Feature","properties":{"NAME":"李家峪村","TEL":"联通","URL":"","ADDRESS1":"丰台区长辛店镇李家峪村","ADDRESS2":"","CITY":"丰台","ZIP":""},"geometry":{"type":"Point","coordinates":[116.15357,39.83434]}},{"type":"Feature","properties":{"NAME":"中体奥园","TEL":"联通","URL":"","ADDRESS1":"","ADDRESS2":"","CITY":"丰台","ZIP":""},"geometry":{"type":"Point","coordinates":[116.1851,39.83501]}},{"type":"Feature","properties":{"NAME":"张郭庄","TEL":"联通","URL":"","ADDRESS1":"丰台区张郭庄","ADDRESS2":"","CITY":"丰台","ZIP":""},"geometry":{"type":"Point","coordinates":[116.1856867,39.85802167]}},{"type":"Feature","properties":{"NAME":"东河沿村","TEL":"联通","URL":"","ADDRESS1":"丰台区太子峪白东村","ADDRESS2":"","CITY":"丰台","ZIP":""},"geometry":{"type":"Point","coordinates":[116.16421,39.87112]}},{"type":"Feature","properties":{"NAME":"华丰纸箱","TEL":"联通","URL":"","ADDRESS1":"北京华丰纸箱厂院内","ADDRESS2":"","CITY":"丰台","ZIP":""},"geometry":{"type":"Point","coordinates":[116.229008,39.867428]}},{"type":"Feature","properties":{"NAME":"华德伟业","TEL":"联通","URL":"","ADDRESS1":"北京市丰台区卢沟桥南里3号","ADDRESS2":"","CITY":"丰台","ZIP":""},"geometry":{"type":"Point","coordinates":[116.223741,39.843463]}},{"type":"Feature","properties":{"NAME":"红星美凯龙","TEL":"联通","URL":"","ADDRESS1":"丰台区西四环岳各庄丰台路41号","ADDRESS2":"","CITY":"丰台","ZIP":""},"geometry":{"type":"Point","coordinates":[116.265631,39.881724]}},{"type":"Feature","properties":{"NAME":"艺海园公司","TEL":"联通","URL":"","ADDRESS1":"北京市海淀区八里庄路吉祥家酒店","ADDRESS2":"","CITY":"丰台","ZIP":""},"geometry":{"type":"Point","coordinates":[116.25339,39.8301]}},{"type":"Feature","properties":{"NAME":"卢沟桥农场路","TEL":"联通","URL":"","ADDRESS1":"","ADDRESS2":"","CITY":"丰台","ZIP":""},"geometry":{"type":"Point","coordinates":[116.25701,39.8027]}},{"type":"Feature","properties":{"NAME":"三友家具城","TEL":"联通","URL":"","ADDRESS1":"丰台西白盆窑车站东绿地内","ADDRESS2":"","CITY":"丰台","ZIP":""},"geometry":{"type":"Point","coordinates":[116.299373,39.783208]}},{"type":"Feature","properties":{"NAME":"新发地市场","TEL":"联通","URL":"","ADDRESS1":"丰台区新发地水果市场9号楼","ADDRESS2":"","CITY":"丰台","ZIP":""},"geometry":{"type":"Point","coordinates":[116.338454,39.808028]}},{"type":"Feature","properties":{"NAME":"国美商都","TEL":"联通","URL":"","ADDRESS1":"南四环国美商都","ADDRESS2":"","CITY":"丰台","ZIP":""},"geometry":{"type":"Point","coordinates":[116.29021,39.82878]}},{"type":"Feature","properties":{"NAME":"黄土岗小学","TEL":"联通","URL":"","ADDRESS1":"黄土岗小学外墙东南角","ADDRESS2":"","CITY":"丰台","ZIP":""},"geometry":{"type":"Point","coordinates":[116.333873,39.831356]}},{"type":"Feature","properties":{"NAME":"北蜂窝","TEL":"联通","URL":"","ADDRESS1":"北京市海淀区莲花池西里11号院","ADDRESS2":"","CITY":"丰台","ZIP":""},"geometry":{"type":"Point","coordinates":[116.301012,39.888949]}},{"type":"Feature","properties":{"NAME":"东风标致","TEL":"联通","URL":"","ADDRESS1":"丰台区丰管路东风标致4S店","ADDRESS2":"","CITY":"丰台","ZIP":""},"geometry":{"type":"Point","coordinates":[116.301271,39.855979]}},{"type":"Feature","properties":{"NAME":"玉泉营桥北","TEL":"联通","URL":"","ADDRESS1":"玉泉营南路东，火车道北5米围墙外","ADDRESS2":"","CITY":"丰台","ZIP":""},"geometry":{"type":"Point","coordinates":[116.34158,39.85707]}},{"type":"Feature","properties":{"NAME":"韩台村","TEL":"","URL":"地面站","ADDRESS1":"北京市昌平区流村镇韩台村村南山头上","ADDRESS2":"","CITY":"昌平","ZIP":""},"geometry":{"type":"Point","coordinates":[115.96297,40.09926]}},{"type":"Feature","properties":{"NAME":"西营村","TEL":"","URL":"地面站","ADDRESS1":"北京市昌平区西营村村委会院内","ADDRESS2":"","CITY":"昌平","ZIP":""},"geometry":{"type":"Point","coordinates":[115.873,40.153]}},{"type":"Feature","properties":{"NAME":"长峪城","TEL":"","URL":"地面站","ADDRESS1":"北京市昌平区南口镇长峪城村","ADDRESS2":"","CITY":"昌平","ZIP":""},"geometry":{"type":"Point","coordinates":[115.899,40.204]}},{"type":"Feature","properties":{"NAME":"黄土岭南","TEL":"","URL":"地面站","ADDRESS1":"北京市昌平区流村镇黄土岭村南侧","ADDRESS2":"","CITY":"昌平","ZIP":""},"geometry":{"type":"Point","coordinates":[115.982,40.225]}},{"type":"Feature","properties":{"NAME":"西峰山","TEL":"","URL":"地面站","ADDRESS1":"北京市昌平区流村镇西峰山大燕北餐厅西南角","ADDRESS2":"","CITY":"昌平","ZIP":""},"geometry":{"type":"Point","coordinates":[116.033573,40.1566]}},{"type":"Feature","properties":{"NAME":"天龙獒园","TEL":"","URL":"地面站","ADDRESS1":"北京市昌平区天龙獒园","ADDRESS2":"","CITY":"昌平","ZIP":""},"geometry":{"type":"Point","coordinates":[116.048,40.258]}},{"type":"Feature","properties":{"NAME":"斋峪水库","TEL":"","URL":"地面站","ADDRESS1":"北京市昌平区斋堂水库大坝南侧","ADDRESS2":"","CITY":"昌平","ZIP":""},"geometry":{"type":"Point","coordinates":[116.03495,40.22553]}},{"type":"Feature","properties":{"NAME":"双龙山","TEL":"","URL":"地面站","ADDRESS1":"北京市昌平区碓臼峪双龙山自然风景区内","ADDRESS2":"","CITY":"昌平","ZIP":""},"geometry":{"type":"Point","coordinates":[116.16016,40.34715]}},{"type":"Feature","properties":{"NAME":"银山塔林","TEL":"","URL":"地面站","ADDRESS1":"北京市昌平区兴寿镇海子村南山","ADDRESS2":"","CITY":"昌平","ZIP":""},"geometry":{"type":"Point","coordinates":[116.277,40.331]}},{"type":"Feature","properties":{"NAME":"连山石村委会","TEL":"","URL":"地面站","ADDRESS1":"北京市昌平区兴寿镇连山石村","ADDRESS2":"","CITY":"昌平","ZIP":""},"geometry":{"type":"Point","coordinates":[116.423,40.291]}},{"type":"Feature","properties":{"NAME":"昌平上店村","TEL":"","URL":"地面站","ADDRESS1":"北京市昌平区南流镇上店村西","ADDRESS2":"","CITY":"昌平","ZIP":""},"geometry":{"type":"Point","coordinates":[116.08391,40.16318]}},{"type":"Feature","properties":{"NAME":"阳坊新乐农庄","TEL":"","URL":"地面站","ADDRESS1":"北京市昌平区阳坊镇南新乐农庄","ADDRESS2":"","CITY":"昌平","ZIP":""},"geometry":{"type":"Point","coordinates":[116.132778,40.130278]}},{"type":"Feature","properties":{"NAME":"辛店村西北","TEL":"","URL":"地面站","ADDRESS1":"北京市昌平区马池口镇辛店村西北京都府驾校西侧","ADDRESS2":"","CITY":"昌平","ZIP":""},"geometry":{"type":"Point","coordinates":[116.145278,40.211389]}},{"type":"Feature","properties":{"NAME":"管理软件学院","TEL":"","URL":"地面站","ADDRESS1":"北京市昌平区东坨村村委会南面公园东南角空地","ADDRESS2":"","CITY":"昌平","ZIP":""},"geometry":{"type":"Point","coordinates":[116.2299,40.14137]}},{"type":"Feature","properties":{"NAME":"三一厂新区","TEL":"","URL":"地面站","ADDRESS1":"北京市昌平区三一电子厂新厂区","ADDRESS2":"","CITY":"昌平","ZIP":""},"geometry":{"type":"Point","coordinates":[116.084,40.20738]}},{"type":"Feature","properties":{"NAME":"工商管理学院","TEL":"","URL":"楼面站","ADDRESS1":"北京市昌平区南口镇工商管理学院学生公寓楼顶层8号楼","ADDRESS2":"","CITY":"昌平","ZIP":""},"geometry":{"type":"Point","coordinates":[116.12128,40.22853]}},{"type":"Feature","properties":{"NAME":"果庄南","TEL":"","URL":"地面站","ADDRESS1":"北京市昌平区昌平镇果庄村南侧","ADDRESS2":"","CITY":"昌平","ZIP":""},"geometry":{"type":"Point","coordinates":[116.161,40.316]}},{"type":"Feature","properties":{"NAME":"虎峪","TEL":"","URL":"地面站","ADDRESS1":"北京市昌平区南口镇虎峪村清华大学核物理研究院院内","ADDRESS2":"","CITY":"昌平","ZIP":""},"geometry":{"type":"Point","coordinates":[116.152012,40.266728]}},{"type":"Feature","properties":{"NAME":"滑园子","TEL":"","URL":"地面站","ADDRESS1":"北京市昌平区滑园子村高速路西","ADDRESS2":"","CITY":"昌平","ZIP":""},"geometry":{"type":"Point","coordinates":[116.10674,40.26141]}},{"type":"Feature","properties":{"NAME":"盘龙台","TEL":"","URL":"地面站","ADDRESS1":"北京市昌平区德陵村盘龙台公墓院内","ADDRESS2":"","CITY":"昌平","ZIP":""},"geometry":{"type":"Point","coordinates":[116.26966,40.28642]}},{"type":"Feature","properties":{"NAME":"桃林村果园","TEL":"","URL":"地面站","ADDRESS1":"北京市昌平区兴寿镇桃林村果园","ADDRESS2":"","CITY":"昌平","ZIP":""},"geometry":{"type":"Point","coordinates":[116.41084,40.23834]}},{"type":"Feature","properties":{"NAME":"沙陀村","TEL":"","URL":"地面站","ADDRESS1":"北京市昌平区沙陀村","ADDRESS2":"","CITY":"昌平","ZIP":""},"geometry":{"type":"Point","coordinates":[116.419,40.206]}},{"type":"Feature","properties":{"NAME":"香堂村","TEL":"","URL":"地面站","ADDRESS1":"北京市昌平区香堂村22路公交车总站","ADDRESS2":"","CITY":"昌平","ZIP":""},"geometry":{"type":"Point","coordinates":[116.357395,40.247472]}},{"type":"Feature","properties":{"NAME":"华夏管理学院","TEL":"","URL":"楼面站","ADDRESS1":"北京市昌平区南庄营村北京华夏管理学院","ADDRESS2":"","CITY":"昌平","ZIP":""},"geometry":{"type":"Point","coordinates":[116.36887,40.21659]}},{"type":"Feature","properties":{"NAME":"航空博物馆","TEL":"","URL":"地面站","ADDRESS1":"北京市昌平区小汤山镇中国航空博物馆西北侧庄园内","ADDRESS2":"","CITY":"昌平","ZIP":""},"geometry":{"type":"Point","coordinates":[116.355,40.187]}},{"type":"Feature","properties":{"NAME":"吕各庄","TEL":"","URL":"地面站","ADDRESS1":"北京市昌平区吕各庄村村委会东围墙内","ADDRESS2":"","CITY":"昌平","ZIP":""},"geometry":{"type":"Point","coordinates":[116.35718,40.13145]}},{"type":"Feature","properties":{"NAME":"上东廓","TEL":"","URL":"地面站","ADDRESS1":"北京市昌平区上东廓村老年活动中心南树林内空地","ADDRESS2":"","CITY":"昌平","ZIP":""},"geometry":{"type":"Point","coordinates":[116.31349,40.13706]}},{"type":"Feature","properties":{"NAME":"百善","TEL":"","URL":"地面站","ADDRESS1":"北京市昌平区百善镇孟祖村内空地","ADDRESS2":"","CITY":"昌平","ZIP":""},"geometry":{"type":"Point","coordinates":[116.316084,40.178061]}},{"type":"Feature","properties":{"NAME":"中财沙河校区","TEL":"","URL":"楼面站","ADDRESS1":"北京市昌平区中央财经大学沙河校区宿舍楼","ADDRESS2":"","CITY":"昌平","ZIP":""},"geometry":{"type":"Point","coordinates":[116.27531,40.16977]}},{"type":"Feature","properties":{"NAME":"赛鸽中心","TEL":"","URL":"地面站","ADDRESS1":"北京市昌平区西沙屯村北北京城外诚赛鸽中心","ADDRESS2":"","CITY":"昌平","ZIP":""},"geometry":{"type":"Point","coordinates":[116.245,40.172]}},{"type":"Feature","properties":{"NAME":"马池口小学","TEL":"","URL":"楼面站","ADDRESS1":"北京市昌平区马池口镇中心小学","ADDRESS2":"","CITY":"昌平","ZIP":""},"geometry":{"type":"Point","coordinates":[116.2098,40.182463]}},{"type":"Feature","properties":{"NAME":"南郝庄","TEL":"","URL":"楼面站","ADDRESS1":"北京市昌平区南郝庄村新郝家园7号楼楼顶","ADDRESS2":"","CITY":"昌平","ZIP":""},"geometry":{"type":"Point","coordinates":[116.202,40.212]}},{"type":"Feature","properties":{"NAME":"亭子庄","TEL":"","URL":"地面站","ADDRESS1":"北京市昌平区马池口镇土楼村委会东院内","ADDRESS2":"","CITY":"昌平","ZIP":""},"geometry":{"type":"Point","coordinates":[116.116317,40.185598]}},{"type":"Feature","properties":{"NAME":"吉利大学A座","TEL":"","URL":"楼面站","ADDRESS1":"北京市昌平区马池口镇吉利大学F座教学楼顶","ADDRESS2":"","CITY":"昌平","ZIP":""},"geometry":{"type":"Point","coordinates":[116.16091,40.17756]}},{"type":"Feature","properties":{"NAME":"莽山度假村","TEL":"","URL":"楼面站","ADDRESS1":"北京市昌平区十三陵镇凤山温泉度假村后山","ADDRESS2":"","CITY":"昌平","ZIP":""},"geometry":{"type":"Point","coordinates":[116.27787,40.250194]}},{"type":"Feature","properties":{"NAME":"军都山滑雪场","TEL":"","URL":"地面站","ADDRESS1":"北京市昌平区崔村镇军都山滑雪场南","ADDRESS2":"","CITY":"昌平","ZIP":""},"geometry":{"type":"Point","coordinates":[116.327,40.235]}},{"type":"Feature","properties":{"NAME":"前蔺沟","TEL":"","URL":"地面站","ADDRESS1":"北京市昌平区后蔺沟村服务公司院内空地","ADDRESS2":"","CITY":"昌平","ZIP":""},"geometry":{"type":"Point","coordinates":[116.44033,40.15463]}},{"type":"Feature","properties":{"NAME":"兴寿","TEL":"","URL":"地面站","ADDRESS1":"北京市昌平区甲方农机站院内","ADDRESS2":"","CITY":"昌平","ZIP":""},"geometry":{"type":"Point","coordinates":[116.456751,40.228162]}},{"type":"Feature","properties":{"NAME":"富来宫温泉山庄","TEL":"","URL":"楼面站","ADDRESS1":"北京市昌平区小汤山镇富来宫温泉山庄","ADDRESS2":"","CITY":"昌平","ZIP":""},"geometry":{"type":"Point","coordinates":[116.397925,40.178881]}},{"type":"Feature","properties":{"NAME":"东沙各庄北","TEL":"","URL":"地面站","ADDRESS1":"北京市昌平区东沙各庄村渡上小区旁边(DK21+200)","ADDRESS2":"","CITY":"昌平","ZIP":""},"geometry":{"type":"Point","coordinates":[116.40272,40.13915]}},{"type":"Feature","properties":{"NAME":"威尼斯花园","TEL":"","URL":"地面站","ADDRESS1":"北京市昌平区北七家镇威尼斯花园","ADDRESS2":"","CITY":"昌平","ZIP":""},"geometry":{"type":"Point","coordinates":[116.406,40.109]}},{"type":"Feature","properties":{"NAME":"八仙庄","TEL":"","URL":"地面站","ADDRESS1":"北京市昌平区北七家镇八仙公寓南铁塔","ADDRESS2":"","CITY":"昌平","ZIP":""},"geometry":{"type":"Point","coordinates":[116.450496,40.110158]}},{"type":"Feature","properties":{"NAME":"昌平一中","TEL":"","URL":"楼面站","ADDRESS1":"北京市昌平区天通东苑太平庄北二街昌平一中分校","ADDRESS2":"","CITY":"昌平","ZIP":""},"geometry":{"type":"Point","coordinates":[116.423,40.073]}},{"type":"Feature","properties":{"NAME":"半截塔村","TEL":"","URL":"地面站","ADDRESS1":"北京市昌平区半截塔村南军事管理区西南墙外","ADDRESS2":"","CITY":"昌平","ZIP":""},"geometry":{"type":"Point","coordinates":[116.39292,40.07591]}},{"type":"Feature","properties":{"NAME":"云趣园三区","TEL":"","URL":"楼面站","ADDRESS1":"北京市昌平区回龙观镇育知东路与回龙观西大街交口西北侧回龙观西大街35号院上北鑫座楼顶","ADDRESS2":"","CITY":"昌平","ZIP":""},"geometry":{"type":"Point","coordinates":[116.326,40.079]}},{"type":"Feature","properties":{"NAME":"瓦尔登湖","TEL":"","URL":"地面站","ADDRESS1":"北京市昌平区沙河镇中海瓦尔登湖东南角移动铁塔","ADDRESS2":"","CITY":"昌平","ZIP":""},"geometry":{"type":"Point","coordinates":[116.314,40.112]}},{"type":"Feature","properties":{"NAME":"史各庄","TEL":"","URL":"楼面站","ADDRESS1":"北京市昌平区史各庄村村北36号楼顶","ADDRESS2":"","CITY":"昌平","ZIP":""},"geometry":{"type":"Point","coordinates":[116.28241,40.10234]}},{"type":"Feature","properties":{"NAME":"民园小区","TEL":"","URL":"地面站","ADDRESS1":"北京市昌平区沙河镇民园小区南侧移动铁塔","ADDRESS2":"","CITY":"昌平","ZIP":""},"geometry":{"type":"Point","coordinates":[116.269,40.139]}},{"type":"Feature","properties":{"NAME":"士官学校","TEL":"","URL":"楼面站","ADDRESS1":"北京市昌平区水库路中国人民解放军装备学院昌平士官学校图书馆楼顶","ADDRESS2":"","CITY":"昌平","ZIP":""},"geometry":{"type":"Point","coordinates":[116.253,40.227]}},{"type":"Feature","properties":{"NAME":"兴业创业园","TEL":"","URL":"楼面站","ADDRESS1":"北京市昌平区超前路37号中关村兴业创业园5号楼顶","ADDRESS2":"","CITY":"昌平","ZIP":""},"geometry":{"type":"Point","coordinates":[116.25208,40.20427]}},{"type":"Feature","properties":{"NAME":"昌平凯创路","TEL":"","URL":"地面站","ADDRESS1":"北京市昌平区凯创路与孟祖河交叉口","ADDRESS2":"","CITY":"昌平","ZIP":""},"geometry":{"type":"Point","coordinates":[116.29,40.199]}},{"type":"Feature","properties":{"NAME":"昌平王庄","TEL":"","URL":"地面站","ADDRESS1":"北京市昌平区王庄村果园内","ADDRESS2":"","CITY":"昌平","ZIP":""},"geometry":{"type":"Point","coordinates":[116.21603,40.26223]}},{"type":"Feature","properties":{"NAME":"北大昌平分校","TEL":"","URL":"地面站","ADDRESS1":"北京市昌平区北京达源兴盛新型建筑材料有限公司东面空地","ADDRESS2":"","CITY":"昌平","ZIP":""},"geometry":{"type":"Point","coordinates":[116.1872,40.23814]}},{"type":"Feature","properties":{"NAME":"西白庙","TEL":"中国联通","URL":"塔站","ADDRESS1":"北京市延庆镇西白庙村","ADDRESS2":"","CITY":"延庆","ZIP":""},"geometry":{"type":"Point","coordinates":[115.914992,40.441829]}},{"type":"Feature","properties":{"NAME":"孟庄北","TEL":"中国联通","URL":"塔站","ADDRESS1":"北京市延庆镇孟庄村孟庄村村北楼区西边","ADDRESS2":"","CITY":"延庆","ZIP":""},"geometry":{"type":"Point","coordinates":[115.961769,40.491353]}},{"type":"Feature","properties":{"NAME":"东红山","TEL":"中国联通","URL":"塔站","ADDRESS1":"北京市延庆县井庄镇东红山村","ADDRESS2":"","CITY":"延庆","ZIP":""},"geometry":{"type":"Point","coordinates":[116.057322,40.428062]}},{"type":"Feature","properties":{"NAME":"里炮村","TEL":"中国移动","URL":"塔站","ADDRESS1":"北京市延庆八达岭镇里炮村村东","ADDRESS2":"","CITY":"延庆","ZIP":""},"geometry":{"type":"Point","coordinates":[115.928231,40.353704]}},{"type":"Feature","properties":{"NAME":"东杏园","TEL":"中国铁塔","URL":"塔站","ADDRESS1":"北京市延庆县延庆东杏园","ADDRESS2":"","CITY":"延庆","ZIP":""},"geometry":{"type":"Point","coordinates":[115.976571,40.424768]}},{"type":"Feature","properties":{"NAME":"石京龙滑雪场","TEL":"中国联通","URL":"塔站","ADDRESS1":"北京市延庆张山营镇中羊坊村北旧小路南侧","ADDRESS2":"","CITY":"延庆","ZIP":""},"geometry":{"type":"Point","coordinates":[115.966913,40.520025]}},{"type":"Feature","properties":{"NAME":"下板泉","TEL":"中国联通","URL":"塔站","ADDRESS1":"北京市延庆张山营镇下板泉村","ADDRESS2":"","CITY":"延庆","ZIP":""},"geometry":{"type":"Point","coordinates":[115.888129,40.496482]}},{"type":"Feature","properties":{"NAME":"郎庄","TEL":"中国联通","URL":"塔站","ADDRESS1":"北京市延庆镇郎庄村村北田地内","ADDRESS2":"","CITY":"延庆","ZIP":""},"geometry":{"type":"Point","coordinates":[115.932487,40.491441]}},{"type":"Feature","properties":{"NAME":"百果园","TEL":"中国移动","URL":"塔站","ADDRESS1":"北京市延庆张山营镇苏庄村村南百果园度假村内","ADDRESS2":"","CITY":"延庆","ZIP":""},"geometry":{"type":"Point","coordinates":[116.010324,40.509094]}},{"type":"Feature","properties":{"NAME":"下营","TEL":"中国移动","URL":"塔站","ADDRESS1":"北京市延庆县张山营镇下营村","ADDRESS2":"","CITY":"延庆","ZIP":""},"geometry":{"type":"Point","coordinates":[115.787905,40.444247]}},{"type":"Feature","properties":{"NAME":"许家营","TEL":"中国移动","URL":"塔站","ADDRESS1":"北京市延庆康庄镇许家营村村委会院内","ADDRESS2":"","CITY":"延庆","ZIP":""},"geometry":{"type":"Point","coordinates":[115.880349,40.417754]}},{"type":"Feature","properties":{"NAME":"康张路桥东","TEL":"中国联通","URL":"塔站","ADDRESS1":"北京市延庆县康庄镇康张路桥东侧","ADDRESS2":"","CITY":"延庆","ZIP":""},"geometry":{"type":"Point","coordinates":[115.876557,40.451255]}},{"type":"Feature","properties":{"NAME":"马庄","TEL":"中国联通","URL":"塔站","ADDRESS1":"北京市延庆张山营镇马庄村村南农田","ADDRESS2":"","CITY":"延庆","ZIP":""},"geometry":{"type":"Point","coordinates":[115.882416,40.470918]}},{"type":"Feature","properties":{"NAME":"大王庄","TEL":"中国移动","URL":"塔站","ADDRESS1":"北京市延庆康庄镇大王庄村村西南猪场","ADDRESS2":"","CITY":"延庆","ZIP":""},"geometry":{"type":"Point","coordinates":[115.858552,40.377108]}},{"type":"Feature","properties":{"NAME":"石槽","TEL":"中国移动","URL":"塔站","ADDRESS1":"北京市延庆县千家店镇石槽村","ADDRESS2":"","CITY":"延庆","ZIP":""},"geometry":{"type":"Point","coordinates":[116.317409,40.631019]}},{"type":"Feature","properties":{"NAME":"沙塘沟","TEL":"中国移动","URL":"塔站","ADDRESS1":"北京市延庆县延庆大庄科乡沙塘沟村北东山梁","ADDRESS2":"","CITY":"延庆","ZIP":""},"geometry":{"type":"Point","coordinates":[116.163522,40.411035]}},{"type":"Feature","properties":{"NAME":"曹碾村","TEL":"中国联通","URL":"塔站","ADDRESS1":"北京市延庆县井庄镇曹碾村南山坡上","ADDRESS2":"","CITY":"延庆","ZIP":""},"geometry":{"type":"Point","coordinates":[116.066783,40.373982]}},{"type":"Feature","properties":{"NAME":"东王庄","TEL":"中国铁塔","URL":"塔站","ADDRESS1":"北京市延庆县大庄科乡东王庄附近","ADDRESS2":"","CITY":"延庆","ZIP":""},"geometry":{"type":"Point","coordinates":[116.268428,40.391906]}},{"type":"Feature","properties":{"NAME":"石峡","TEL":"中国移动","URL":"塔站","ADDRESS1":"北京市延庆八达岭镇石峡村西上坎西上坎","ADDRESS2":"","CITY":"延庆","ZIP":""},"geometry":{"type":"Point","coordinates":[115.946534,40.302452]}},{"type":"Feature","properties":{"NAME":"偏坡峪","TEL":"中国铁塔","URL":"塔站","ADDRESS1":"北京市延庆县偏坡峪附近","ADDRESS2":"","CITY":"延庆","ZIP":""},"geometry":{"type":"Point","coordinates":[116.288556,40.506883]}},{"type":"Feature","properties":{"NAME":"小川","TEL":"中国移动","URL":"塔站","ADDRESS1":"北京市延庆珍珠泉乡小川村村南西侧坡上","ADDRESS2":"","CITY":"延庆","ZIP":""},"geometry":{"type":"Point","coordinates":[116.494673,40.628307]}},{"type":"Feature","properties":{"NAME":"三潭沟","TEL":"中国联通","URL":"塔站","ADDRESS1":"北京市延庆千家店乡三潭沟村","ADDRESS2":"","CITY":"延庆","ZIP":""},"geometry":{"type":"Point","coordinates":[116.458265,40.695082]}},{"type":"Feature","properties":{"NAME":"水头","TEL":"中国移动","URL":"塔站","ADDRESS1":"北京市延庆千家店镇水头村水头村西山坡","ADDRESS2":"","CITY":"延庆","ZIP":""},"geometry":{"type":"Point","coordinates":[116.267656,40.739981]}},{"type":"Feature","properties":{"NAME":"东边","TEL":"中国移动","URL":"塔站","ADDRESS1":"北京市延庆县香营乡东边村","ADDRESS2":"","CITY":"延庆","ZIP":""},"geometry":{"type":"Point","coordinates":[116.185671,40.662121]}},{"type":"Feature","properties":{"NAME":"小吉祥","TEL":"中国移动","URL":"塔站","ADDRESS1":"北京市延庆刘斌堡乡小吉祥村村东坡上","ADDRESS2":"","CITY":"延庆","ZIP":""},"geometry":{"type":"Point","coordinates":[116.332638,40.559916]}},{"type":"Feature","properties":{"NAME":"军营","TEL":"中国联通","URL":"塔站","ADDRESS1":"北京市延庆大榆树镇军营村村北农田旁","ADDRESS2":"","CITY":"延庆","ZIP":""},"geometry":{"type":"Point","coordinates":[115.945065,40.409934]}},{"type":"Feature","properties":{"NAME":"屈家窑","TEL":"中国移动","URL":"塔站","ADDRESS1":"北京市延庆县香营乡屈家窑村","ADDRESS2":"","CITY":"延庆","ZIP":""},"geometry":{"type":"Point","coordinates":[116.102743,40.592862]}},{"type":"Feature","properties":{"NAME":"大浮坨南","TEL":"中国铁塔","URL":"塔站","ADDRESS1":"北京市延庆县大浮坨南附近","ADDRESS2":"","CITY":"延庆","ZIP":""},"geometry":{"type":"Point","coordinates":[115.950286,40.380783]}},{"type":"Feature","properties":{"NAME":"常里营","TEL":"中国联通","URL":"塔站","ADDRESS1":"北京市延庆县旧县乡常里营村","ADDRESS2":"","CITY":"延庆","ZIP":""},"geometry":{"type":"Point","coordinates":[116.051377,40.538495]}},{"type":"Feature","properties":{"NAME":"柳沟","TEL":"中国联通","URL":"塔站","ADDRESS1":"北京市延庆井庄镇柳沟村","ADDRESS2":"","CITY":"延庆","ZIP":""},"geometry":{"type":"Point","coordinates":[116.095765,40.442132]}},{"type":"Feature","properties":{"NAME":"二道河局","TEL":"中国联通","URL":"塔站","ADDRESS1":"北京市延庆井庄镇二道河村联通二道河局院内","ADDRESS2":"","CITY":"延庆","ZIP":""},"geometry":{"type":"Point","coordinates":[116.070831,40.405594]}},{"type":"Feature","properties":{"NAME":"临河","TEL":"中国移动","URL":"塔站","ADDRESS1":"北京市延庆沈家营临河村村西南","ADDRESS2":"","CITY":"延庆","ZIP":""},"geometry":{"type":"Point","coordinates":[116.024472,40.465833]}},{"type":"Feature","properties":{"NAME":"小泥河","TEL":"中国移动","URL":"塔站","ADDRESS1":"北京市延庆县小泥河村","ADDRESS2":"","CITY":"延庆","ZIP":""},"geometry":{"type":"Point","coordinates":[115.989854,40.400655]}},{"type":"Feature","properties":{"NAME":"二铺","TEL":"中国联通","URL":"塔站","ADDRESS1":"北京市延庆永宁镇二铺村西山上","ADDRESS2":"","CITY":"延庆","ZIP":""},"geometry":{"type":"Point","coordinates":[116.210064,40.491986]}},{"type":"Feature","properties":{"NAME":"头司","TEL":"中国联通","URL":"塔站","ADDRESS1":"北京市延庆县头司村村北","ADDRESS2":"","CITY":"延庆","ZIP":""},"geometry":{"type":"Point","coordinates":[116.158765,40.473272]}},{"type":"Feature","properties":{"NAME":"吴坊营局","TEL":"中国联通","URL":"塔站","ADDRESS1":"北京市延庆永宁镇吴坊营村联通吴坊营局院内","ADDRESS2":"","CITY":"延庆","ZIP":""},"geometry":{"type":"Point","coordinates":[116.101683,40.508183]}},{"type":"Feature","properties":{"NAME":"龙庆峡旧局","TEL":"中国联通","URL":"塔站","ADDRESS1":"北京市延庆旧县乡龙庆峡旧局","ADDRESS2":"","CITY":"延庆","ZIP":""},"geometry":{"type":"Point","coordinates":[116.004672,40.545007]}},{"type":"Feature","properties":{"NAME":"西大庄科","TEL":"中国移动","URL":"塔站","ADDRESS1":"延庆县张山营镇西大庄科村后梁","ADDRESS2":"","CITY":"延庆","ZIP":""},"geometry":{"type":"Point","coordinates":[115.775214,40.520822]}},{"type":"Feature","properties":{"NAME":"石洞子北","TEL":"移动","URL":"塔站","ADDRESS1":"北京市怀柔区喇叭沟门满族乡帽山村","ADDRESS2":"","CITY":"怀柔","ZIP":""},"geometry":{"type":"Point","coordinates":[116.635138,41.046754]}},{"type":"Feature","properties":{"NAME":"原始森林","TEL":"联通","URL":"塔站","ADDRESS1":"北京市怀柔区喇叭沟门满族乡孙栅子村村边原始森林入口附近山头","ADDRESS2":"","CITY":"怀柔","ZIP":""},"geometry":{"type":"Point","coordinates":[116.47688,40.96179]}},{"type":"Feature","properties":{"NAME":"温栅子村","TEL":"移动","URL":"塔站","ADDRESS1":"北京市怀柔区宝山镇温栅子村无线机房","ADDRESS2":"","CITY":"怀柔","ZIP":""},"geometry":{"type":"Point","coordinates":[116.3639,40.90278]}},{"type":"Feature","properties":{"NAME":"三块石","TEL":"联通","URL":"楼面站","ADDRESS1":"北京市怀柔区宝山镇三块石村村附近山头","ADDRESS2":"","CITY":"怀柔","ZIP":""},"geometry":{"type":"Point","coordinates":[116.49322,40.78374]}},{"type":"Feature","properties":{"NAME":"松树台西北","TEL":"联通","URL":"塔站","ADDRESS1":"北京市怀柔区长哨营乡松树台村","ADDRESS2":"","CITY":"怀柔","ZIP":""},"geometry":{"type":"Point","coordinates":[116.42175,40.84036]}},{"type":"Feature","properties":{"NAME":"下窝铺","TEL":"联通","URL":"塔站","ADDRESS1":"北京市怀柔区喇叭沟门满族乡下窝铺村村东山坡","ADDRESS2":"","CITY":"怀柔","ZIP":""},"geometry":{"type":"Point","coordinates":[116.82891,40.79476]}},{"type":"Feature","properties":{"NAME":"项栅子村","TEL":"移动","URL":"塔站","ADDRESS1":"北京市怀柔区长哨营满族乡项栅子村村西山头无线机房","ADDRESS2":"","CITY":"怀柔","ZIP":""},"geometry":{"type":"Point","coordinates":[116.753611,40.759722]}},{"type":"Feature","properties":{"NAME":"大蒲池沟村","TEL":"移动","URL":"塔站","ADDRESS1":"北京市怀柔区汤河口镇大蒲池沟村","ADDRESS2":"","CITY":"怀柔","ZIP":""},"geometry":{"type":"Point","coordinates":[116.6842,40.74361]}},{"type":"Feature","properties":{"NAME":"头道穴","TEL":"移动","URL":"塔站","ADDRESS1":"北京市怀柔区头道穴机房","ADDRESS2":"","CITY":"怀柔","ZIP":""},"geometry":{"type":"Point","coordinates":[116.6131,40.97444]}},{"type":"Feature","properties":{"NAME":"北辛店","TEL":"移动","URL":"塔站","ADDRESS1":"北京市怀柔区喇叭沟门乡北辛店村无线机房","ADDRESS2":"","CITY":"怀柔","ZIP":""},"geometry":{"type":"Point","coordinates":[116.5101,40.90609]}},{"type":"Feature","properties":{"NAME":"小梁前","TEL":"移动","URL":"塔站","ADDRESS1":"北京市怀柔区汤河口镇小梁前村无线机房","ADDRESS2":"","CITY":"怀柔","ZIP":""},"geometry":{"type":"Point","coordinates":[116.539641,40.843021]}},{"type":"Feature","properties":{"NAME":"二道河","TEL":"移动","URL":"塔站","ADDRESS1":"北京市怀柔区二道河无线机房","ADDRESS2":"","CITY":"怀柔","ZIP":""},"geometry":{"type":"Point","coordinates":[116.7417,40.82]}},{"type":"Feature","properties":{"NAME":"东岔村","TEL":"移动","URL":"塔站","ADDRESS1":"北京市怀柔区喇叭沟门乡东岔村村北山头无线机房","ADDRESS2":"","CITY":"怀柔","ZIP":""},"geometry":{"type":"Point","coordinates":[116.669763,40.891567]}},{"type":"Feature","properties":{"NAME":"中榆树店村","TEL":"移动","URL":"塔站","ADDRESS1":"北京市怀柔区喇叭沟门满族乡中榆树店村","ADDRESS2":"","CITY":"怀柔","ZIP":""},"geometry":{"type":"Point","coordinates":[116.5903,40.9225]}},{"type":"Feature","properties":{"NAME":"三道窝铺","TEL":"移动","URL":"塔站","ADDRESS1":"北京市怀柔区长哨营满族乡三道窝铺村无线机房","ADDRESS2":"","CITY":"怀柔","ZIP":""},"geometry":{"type":"Point","coordinates":[116.6219,40.82472]}},{"type":"Feature","properties":{"NAME":"北湾","TEL":"联通","URL":"楼站","ADDRESS1":"北京市怀柔区宝山镇北湾北湾自然村附近山头","ADDRESS2":"","CITY":"怀柔","ZIP":""},