{"type":"FeatureCollection","features":[{"type":"Feature","properties":{"NAME":"燕山保运中心","TEL":"工业","URL":"燕化","ADDRESS1":"北京市房山燕山镇燕山保运中心厂区维修车间3层机房无","ADDRESS2":"","CITY":"房山","ZIP":""},"geometry":{"type":"Point","coordinates":[115.96209,39.72744]}},{"type":"Feature","properties":{"NAME":"燕山地毯厂","TEL":"工业","URL":"燕化","ADDRESS1":"北京市房山燕山镇燕山地毯厂院内无线机房无","ADDRESS2":"","CITY":"房山","ZIP":""},"geometry":{"type":"Point","coordinates":[115.94256,39.76392]}},{"type":"Feature","properties":{"NAME":"燕山容典石化","TEL":"工业","URL":"燕化","ADDRESS1":"房山区燕山容典石化公司","ADDRESS2":"","CITY":"房山","ZIP":""},"geometry":{"type":"Point","coordinates":[115.97767,39.73892]}},{"type":"Feature","properties":{"NAME":"燕化动力厂","TEL":"工业","URL":"燕化","ADDRESS1":"北京市北京市本部房山燕山00大件路动力厂","ADDRESS2":"","CITY":"房山","ZIP":""},"geometry":{"type":"Point","coordinates":[115.98671,39.723547]}},{"type":"Feature","properties":{"NAME":"阎村工业区","TEL":"工业","URL":"燕化","ADDRESS1":"阎村工业区内超越电缆楼顶","ADDRESS2":"","CITY":"房山","ZIP":""},"geometry":{"type":"Point","coordinates":[116.039846,39.714383]}},{"type":"Feature","properties":{"NAME":"大韩继村","TEL":"工业","URL":"燕化","ADDRESS1":"大韩继村外砂石场内","ADDRESS2":"","CITY":"房山","ZIP":""},"geometry":{"type":"Point","coordinates":[115.950301,39.655115]}},{"type":"Feature","properties":{"NAME":"燕山站南","TEL":"工业","URL":"燕化","ADDRESS1":"燕山火车站南370米","ADDRESS2":"","CITY":"房山","ZIP":""},"geometry":{"type":"Point","coordinates":[115.959018,39.747393]}},{"type":"Feature","properties":{"NAME":"廖公庄","TEL":"物流","URL":"锦绣大地","ADDRESS1":"海淀区阜石路69号锦绣大地物流港楼顶","ADDRESS2":"","CITY":"海淀","ZIP":""},"geometry":{"type":"Point","coordinates":[116.2224,39.93006]}},{"type":"Feature","properties":{"NAME":"高里掌村南","TEL":"交通","URL":"北清路","ADDRESS1":"海淀区温北路庄户人家对面杆塔","ADDRESS2":"","CITY":"海淀","ZIP":""},"geometry":{"type":"Point","coordinates":[116.146231,40.067491]}},{"type":"Feature","properties":{"NAME":"六里屯","TEL":"垃圾填埋场","URL":"六里屯","ADDRESS1":"海淀区西北旺镇亮甲店村六里屯砖瓦厂左边的垃圾场内","ADDRESS2":"","CITY":"海淀","ZIP":""},"geometry":{"type":"Point","coordinates":[116.2313034,40.06161108]}},{"type":"Feature","properties":{"NAME":"丁家坟南侧","TEL":"交通","URL":"G7","ADDRESS1":"海淀区丁家坟南侧G7旁","ADDRESS2":"","CITY":"海淀","ZIP":""},"geometry":{"type":"Point","coordinates":[116.234591,40.116731]}},{"type":"Feature","properties":{"NAME":"北清路上庄路","TEL":"交通","URL":"北清路","ADDRESS1":"海淀北清路与上庄路交叉口东南角","ADDRESS2":"","CITY":"海淀","ZIP":""},"geometry":{"type":"Point","coordinates":[116.206179,40.067462]}},{"type":"Feature","properties":{"NAME":"南平庄东口","TEL":"交通","URL":"杏石口路","ADDRESS1":"杏石口路南平庄公交站西侧维实教育楼顶日海一体化机柜","ADDRESS2":"","CITY":"海淀","ZIP":""},"geometry":{"type":"Point","coordinates":[116.23753,39.94653]}},{"type":"Feature","properties":{"NAME":"慧科大厦","TEL":"垂直梯度","URL":"城区60米","ADDRESS1":"海淀区五棵松路32号(西四环与平安大街交汇处东北角)","ADDRESS2":"","CITY":"海淀","ZIP":""},"geometry":{"type":"Point","coordinates":[116.27076,39.9324]}},{"type":"Feature","properties":{"NAME":"空军工程大学","TEL":"机场","URL":"西郊机场东侧","ADDRESS1":"海淀闵航路29号空军工程大学楼顶一体化机柜","ADDRESS2":"","CITY":"海淀","ZIP":""},"geometry":{"type":"Point","coordinates":[116.262376,39.960223]}},{"type":"Feature","properties":{"NAME":"徐辛庄东","TEL":"工业","URL":"饲料","ADDRESS1":"北京市通州区宋庄镇徐辛庄村六环东2公里处饲料厂院内","ADDRESS2":"","CITY":"通州","ZIP":""},"geometry":{"type":"Point","coordinates":[116.72636,39.99045]}},{"type":"Feature","properties":{"NAME":"亦庄英菲尼迪","TEL":"工业","URL":"亦庄","ADDRESS1":"大兴区亦庄镇北环东路英菲尼迪4S店5层主外机箱","ADDRESS2":"","CITY":"大兴","ZIP":""},"geometry":{"type":"Point","coordinates":[116.504798,39.810248]}},{"type":"Feature","properties":{"NAME":"亦庄华威制版","TEL":"工业","URL":"亦庄","ADDRESS1":"亦庄开发区亦庄物业管理中心院内1","ADDRESS2":"","CITY":"大兴","ZIP":""},"geometry":{"type":"Point","coordinates":[116.518167,39.810751]}},{"type":"Feature","properties":{"NAME":"亦庄液压公司","TEL":"工业","URL":"亦庄","ADDRESS1":"大兴亦庄开发区华德液压公司楼顶6F","ADDRESS2":"","CITY":"大兴","ZIP":""},"geometry":{"type":"Point","coordinates":[116.508583,39.803806]}},{"type":"Feature","properties":{"NAME":"亦庄金田恒业","TEL":"工业","URL":"亦庄","ADDRESS1":"大兴亦庄金田恒业公司","ADDRESS2":"","CITY":"大兴","ZIP":""},"geometry":{"type":"Point","coordinates":[116.527001,39.803641]}},{"type":"Feature","properties":{"NAME":"亦庄再生水厂","TEL":"工业","URL":"亦庄","ADDRESS1":"北京市大兴区北京经济技术开发区--亦庄再生水厂","ADDRESS2":"","CITY":"大兴","ZIP":""},"geometry":{"type":"Point","coordinates":[116.4758,39.79462]}},{"type":"Feature","properties":{"NAME":"亦庄伊诺尔印务","TEL":"工业","URL":"亦庄","ADDRESS1":"亦庄伊诺尔印务","ADDRESS2":"","CITY":"大兴","ZIP":""},"geometry":{"type":"Point","coordinates":[116.524291,39.768361]}},{"type":"Feature","properties":{"NAME":"南海子公园","TEL":"公园","URL":"","ADDRESS1":"大兴南海子公园1","ADDRESS2":"","CITY":"大兴","ZIP":""},"geometry":{"type":"Point","coordinates":[116.461641,39.765355]}},{"type":"Feature","properties":{"NAME":"亦庄奔驰厂","TEL":"工业","URL":"汽车制造","ADDRESS1":"北京市大兴区亦庄奔驰NGCC厂区西南侧临时集装箱位置","ADDRESS2":"","CITY":"大兴","ZIP":""},"geometry":{"type":"Point","coordinates":[116.504585,39.713852]}},{"type":"Feature","properties":{"NAME":"南苑警卫连","TEL":"机场","URL":"南苑","ADDRESS1":"北京市丰台区南苑街道警备西路南苑机场南苑空军警卫连办公楼","ADDRESS2":"","CITY":"丰台","ZIP":""},"geometry":{"type":"Point","coordinates":[116.389,39.797]}},{"type":"Feature","properties":{"NAME":"京昆石棉厂","TEL":"工业","URL":"石棉","ADDRESS1":"京昆石棉厂","ADDRESS2":"","CITY":"丰台","ZIP":""},"geometry":{"type":"Point","coordinates":[116.18809,39.79339]}},{"type":"Feature","properties":{"NAME":"世界公园","TEL":"公园","URL":"","ADDRESS1":"丰台区葆台路世界公园B区空地","ADDRESS2":"","CITY":"丰台","ZIP":""},"geometry":{"type":"Point","coordinates":[116.29201,39.80701]}},{"type":"Feature","properties":{"NAME":"居庸关城楼","TEL":"交通","URL":"G6","ADDRESS1":"北京市昌平区南口镇居庸关城楼","ADDRESS2":"","CITY":"昌平","ZIP":""},"geometry":{"type":"Point","coordinates":[116.067,40.287]}},{"type":"Feature","properties":{"NAME":"百善镇东","TEL":"交通","URL":"北六环","ADDRESS1":"北京市昌平区百善镇百善东桥西侧六环路北","ADDRESS2":"","CITY":"昌平","ZIP":""},"geometry":{"type":"Point","coordinates":[116.346,40.166]}},{"type":"Feature","properties":{"NAME":"雁栖工业园","TEL":"工业","URL":"园区","ADDRESS1":"北京市怀柔区雁栖开发区杨雁路硕泽集团三鑫股份对面厂房","ADDRESS2":"","CITY":"怀柔","ZIP":""},"geometry":{"type":"Point","coordinates":[116.67675,40.37007]}},{"type":"Feature","properties":{"NAME":"欧马可汽车厂","TEL":"工业","URL":"汽车制造","ADDRESS1":"北京市怀柔区北京欧马可轻型汽车厂","ADDRESS2":"","CITY":"怀柔","ZIP":""},"geometry":{"type":"Point","coordinates":[116.635096,40.316924]}},{"type":"Feature","properties":{"NAME":"欧曼汽车厂","TEL":"工业","URL":"汽车制造","ADDRESS1":"北京市怀柔区刘各长村欧曼骑车厂东南角","ADDRESS2":"","CITY":"怀柔","ZIP":""},"geometry":{"type":"Point","coordinates":[116.630334,40.345113]}},{"type":"Feature","properties":{"NAME":"首钢鲁家滩矿","TEL":"工业","URL":"矿","ADDRESS1":"北京市门头沟区潭柘寺镇鲁家滩村首钢鲁家滩矿","ADDRESS2":"","CITY":"门头沟","ZIP":""},"geometry":{"type":"Point","coordinates":[116.0459372,39.85262234]}},{"type":"Feature","properties":{"NAME":"白灰厂","TEL":"工业","URL":"白灰厂","ADDRESS1":"北京市门头沟区妙峰山镇担礼村担礼村八方达汽车站北面山坡","ADDRESS2":"","CITY":"门头沟","ZIP":""},"geometry":{"type":"Point","coordinates":[116.0437266,39.99663078]}},{"type":"Feature","properties":{"NAME":"军庄西水地","TEL":"交通","URL":"西六环","ADDRESS1":"北京市门头沟区军庄镇西水地村南六环边","ADDRESS2":"","CITY":"门头沟","ZIP":""},"geometry":{"type":"Point","coordinates":[116.0867472,39.98651944]}},{"type":"Feature","properties":{"NAME":"金马工业区","TEL":"工业","URL":"园区","ADDRESS1":"北京市顺义金马工业区","ADDRESS2":"","CITY":"顺义","ZIP":""},"geometry":{"type":"Point","coordinates":[116.559794,40.132283]}},{"type":"Feature","properties":{"NAME":"北京现代汽车","TEL":"工业","URL":"汽车制造","ADDRESS1":"北京市顺义区仁和镇现代汽车","ADDRESS2":"","CITY":"顺义","ZIP":""},"geometry":{"type":"Point","coordinates":[116.643903,40.101808]}},{"type":"Feature","properties":{"NAME":"沙沱工业区","TEL":"工业","URL":"园区","ADDRESS1":"北京市顺义区仁和镇梅沟营村沙陀工业区兴福机电设备厂","ADDRESS2":"","CITY":"顺义","ZIP":""},"geometry":{"type":"Point","coordinates":[116.612037,40.111365]}},{"type":"Feature","properties":{"NAME":"八大处管理处","TEL":"垂直梯度","URL":"八大处地面","ADDRESS1":"","ADDRESS2":"","CITY":"石景山","ZIP":""},"geometry":{"type":"Point","coordinates":[116.17739,39.95429]}},{"type":"Feature","properties":{"NAME":"八大处七处","TEL":"垂直梯度","URL":"八大处七处","ADDRESS1":"","ADDRESS2":"","CITY":"石景山","ZIP":""},"geometry":{"type":"Point","coordinates":[116.17092,39.96332]}},{"type":"Feature","properties":{"NAME":"第一型材厂","TEL":"工业","URL":"钢材","ADDRESS1":"","ADDRESS2":"","CITY":"石景山","ZIP":""},"geometry":{"type":"Point","coordinates":[116.16418,39.89862]}},{"type":"Feature","properties":{"NAME":"京能热电厂","TEL":"发电","URL":"京能热电","ADDRESS1":"","ADDRESS2":"","CITY":"石景山","ZIP":""},"geometry":{"type":"Point","coordinates":[116.13813,39.92582]}},{"type":"Feature","properties":{"NAME":"首钢污水处理","TEL":"污水处理","URL":"","ADDRESS1":"","ADDRESS2":"","CITY":"石景山","ZIP":""},"geometry":{"type":"Point","coordinates":[116.18698,39.89534]}},{"type":"Feature","properties":{"NAME":"健翔桥","TEL":"交通","URL":"健翔桥东北角","ADDRESS1":"朝阳区北四环路健翔桥东北角辅路旁绿地内1F","ADDRESS2":"","CITY":"朝阳","ZIP":""},"geometry":{"type":"Point","coordinates":[116.3733333,39.98694444]}},{"type":"Feature","properties":{"NAME":"京顺路18号","TEL":"交通","URL":"京顺路北皋","ADDRESS1":"朝阳区高速北皋出口京顺路北18号树　1F","ADDRESS2":"","CITY":"朝阳","ZIP":""},"geometry":{"type":"Point","coordinates":[116.5113889,40.01611111]}},{"type":"Feature","properties":{"NAME":"高安屯","TEL":"垃圾填埋场","URL":"高安屯","ADDRESS1":"北京市朝阳区金盏乡东高路马各庄村马各庄村高安屯垃圾填埋场北侧1层绿地","ADDRESS2":"","CITY":"朝阳","ZIP":""},"geometry":{"type":"Point","coordinates":[116.61995,39.94592]}},{"type":"Feature","properties":{"NAME":"国贸桥西北","TEL":"交通","URL":"国贸桥","ADDRESS1":"朝阳区国贸桥西北侧路边1F","ADDRESS2":"","CITY":"朝阳","ZIP":""},"geometry":{"type":"Point","coordinates":[116.455,39.90972222]}},{"type":"Feature","properties":{"NAME":"窑洼湖桥","TEL":"交通","URL":"东四环窑洼湖","ADDRESS1":"东四环路窑洼湖桥桥下西侧自建房","ADDRESS2":"","CITY":"朝阳","ZIP":""},"geometry":{"type":"Point","coordinates":[116.4830556,39.88166667]}},{"type":"Feature","properties":{"NAME":"关西庄","TEL":"交通","URL":"北五环","ADDRESS1":"朝阳区北五环外辅路奥林西桥1F","ADDRESS2":"","CITY":"朝阳","ZIP":""},"geometry":{"type":"Point","coordinates":[116.3758333,40.02166667]}},{"type":"Feature","properties":{"NAME":"京承高速","TEL":"交通","URL":"来广营","ADDRESS1":"朝阳来广营桥西南，京承高速K4+0进京1F","ADDRESS2":"","CITY":"朝阳","ZIP":""},"geometry":{"type":"Point","coordinates":[116.4486111,40.01444444]}}]}