{"type":"FeatureCollection","features":[{"type":"Feature","properties":{"NAME":"永定门内大街","TEL":"市控","URL":"交通","ADDRESS1":"","ADDRESS2":"","CITY":"","ZIP":""},"geometry":{"type":"Point","coordinates":[116.3932119,39.87532562]}},{"type":"Feature","properties":{"NAME":"榆垡","TEL":"市控","URL":"区域","ADDRESS1":"","ADDRESS2":"","CITY":"","ZIP":""},"geometry":{"type":"Point","coordinates":[116.3266578,39.49002739]}},{"type":"Feature","properties":{"NAME":"北京植物园","TEL":"市控","URL":"评价","ADDRESS1":"","ADDRESS2":"","CITY":"","ZIP":""},"geometry":{"type":"Point","coordinates":[116.2062791,40.0012597]}},{"type":"Feature","properties":{"NAME":"丰台花园","TEL":"市控","URL":"评价","ADDRESS1":"","ADDRESS2":"","CITY":"","ZIP":""},"geometry":{"type":"Point","coordinates":[116.2796341,39.861888]}},{"type":"Feature","properties":{"NAME":"顺义","TEL":"国控","URL":"评价","ADDRESS1":"","ADDRESS2":"","CITY":"","ZIP":""},"geometry":{"type":"Point","coordinates":[116.6547035,40.12663578]}},{"type":"Feature","properties":{"NAME":"延庆","TEL":"市控","URL":"评价","ADDRESS1":"","ADDRESS2":"","CITY":"","ZIP":""},"geometry":{"type":"Point","coordinates":[115.9713703,40.45279825]}},{"type":"Feature","properties":{"NAME":"平谷","TEL":"市控","URL":"评价","ADDRESS1":"","ADDRESS2":"","CITY":"","ZIP":""},"geometry":{"type":"Point","coordinates":[117.100298,40.1398482]}},{"type":"Feature","properties":{"NAME":"良乡","TEL":"市控","URL":"评价","ADDRESS1":"","ADDRESS2":"","CITY":"","ZIP":""},"geometry":{"type":"Point","coordinates":[116.1380129,39.74416671]}},{"type":"Feature","properties":{"NAME":"亦庄","TEL":"市控","URL":"评价","ADDRESS1":"","ADDRESS2":"","CITY":"","ZIP":""},"geometry":{"type":"Point","coordinates":[116.496352,39.79591792]}},{"type":"Feature","properties":{"NAME":"云岗","TEL":"市控","URL":"评价","ADDRESS1":"","ADDRESS2":"","CITY":"","ZIP":""},"geometry":{"type":"Point","coordinates":[116.1528296,39.81972405]}},{"type":"Feature","properties":{"NAME":"水库","TEL":"市控","URL":"区域","ADDRESS1":"","ADDRESS2":"","CITY":"","ZIP":""},"geometry":{"type":"Point","coordinates":[116.9107152,40.49806394]}},{"type":"Feature","properties":{"NAME":"怀柔","TEL":"国控","URL":"评价","ADDRESS1":"","ADDRESS2":"","CITY":"","ZIP":""},"geometry":{"type":"Point","coordinates":[116.6270294,40.32715564]}},{"type":"Feature","properties":{"NAME":"八达岭","TEL":"市控","URL":"区域","ADDRESS1":"","ADDRESS2":"","CITY":"","ZIP":""},"geometry":{"type":"Point","coordinates":[116.0032543,40.35649939]}},{"type":"Feature","properties":{"NAME":"万寿西宫","TEL":"国控","URL":"评价","ADDRESS1":"","ADDRESS2":"","CITY":"","ZIP":""},"geometry":{"type":"Point","coordinates":[116.3614144,39.87805422]}},{"type":"Feature","properties":{"NAME":"昌平镇","TEL":"国控","URL":"评价","ADDRESS1":"","ADDRESS2":"","CITY":"","ZIP":""},"geometry":{"type":"Point","coordinates":[116.2289078,40.21670252]}},{"type":"Feature","properties":{"NAME":"门头沟龙泉镇","TEL":"市控","URL":"评价","ADDRESS1":"","ADDRESS2":"","CITY":"","ZIP":""},"geometry":{"type":"Point","coordinates":[116.1050742,39.93690235]}},{"type":"Feature","properties":{"NAME":"通州","TEL":"市控","URL":"评价","ADDRESS1":"","ADDRESS2":"","CITY":"","ZIP":""},"geometry":{"type":"Point","coordinates":[116.6901402,39.87891783]}},{"type":"Feature","properties":{"NAME":"大兴黄村","TEL":"市控","URL":"评价","ADDRESS1":"","ADDRESS2":"","CITY":"","ZIP":""},"geometry":{"type":"Point","coordinates":[116.3286649,39.73981718]}},{"type":"Feature","properties":{"NAME":"定陵","TEL":"国控","URL":"城市背景","ADDRESS1":"","ADDRESS2":"","CITY":"","ZIP":""},"geometry":{"type":"Point","coordinates":[116.2191688,40.2916309]}},{"type":"Feature","properties":{"NAME":"前门东大街","TEL":"国控","URL":"交通","ADDRESS1":"","ADDRESS2":"","CITY":"","ZIP":""},"geometry":{"type":"Point","coordinates":[116.3947991,39.89911308]}},{"type":"Feature","properties":{"NAME":"东四","TEL":"国控","URL":"评价","ADDRESS1":"","ADDRESS2":"","CITY":"","ZIP":""},"geometry":{"type":"Point","coordinates":[116.4167817,39.92860059]}},{"type":"Feature","properties":{"NAME":"天坛","TEL":"国控","URL":"评价","ADDRESS1":"","ADDRESS2":"","CITY":"","ZIP":""},"geometry":{"type":"Point","coordinates":[116.4061024,39.88592453]}},{"type":"Feature","properties":{"NAME":"奥体","TEL":"国控","URL":"评价","ADDRESS1":"","ADDRESS2":"","CITY":"","ZIP":""},"geometry":{"type":"Point","coordinates":[116.3953559,39.98152219]}},{"type":"Feature","properties":{"NAME":"农展馆","TEL":"国控","URL":"评价","ADDRESS1":"","ADDRESS2":"","CITY":"","ZIP":""},"geometry":{"type":"Point","coordinates":[116.4605275,39.93657948]}},{"type":"Feature","properties":{"NAME":"密云镇","TEL":"市控","URL":"评价","ADDRESS1":"","ADDRESS2":"","CITY":"","ZIP":""},"geometry":{"type":"Point","coordinates":[116.8390063,40.38355966]}},{"type":"Feature","properties":{"NAME":"古城","TEL":"市控","URL":"评价","ADDRESS1":"","ADDRESS2":"","CITY":"","ZIP":""},"geometry":{"type":"Point","coordinates":[116.1835677,39.91318793]}},{"type":"Feature","properties":{"NAME":"官园","TEL":"国控","URL":"评价","ADDRESS1":"","ADDRESS2":"","CITY":"","ZIP":""},"geometry":{"type":"Point","coordinates":[116.3386337,39.92914505]}},{"type":"Feature","properties":{"NAME":"南三环西路","TEL":"市控","URL":"交通","ADDRESS1":"","ADDRESS2":"","CITY":"","ZIP":""},"geometry":{"type":"Point","coordinates":[116.3674321,39.85551128]}},{"type":"Feature","properties":{"NAME":"北部新区","TEL":"市控","URL":"评价","ADDRESS1":"","ADDRESS2":"","CITY":"","ZIP":""},"geometry":{"type":"Point","coordinates":[116.172796,40.09031345]}},{"type":"Feature","properties":{"NAME":"万柳","TEL":"国控","URL":"评价","ADDRESS1":"","ADDRESS2":"","CITY":"","ZIP":""},"geometry":{"type":"Point","coordinates":[116.2872723,39.96108544]}},{"type":"Feature","properties":{"NAME":"永乐店","TEL":"市控","URL":"区域","ADDRESS1":"","ADDRESS2":"","CITY":"","ZIP":""},"geometry":{"type":"Point","coordinates":[116.7903581,39.70418215]}},{"type":"Feature","properties":{"NAME":"琉璃河","TEL":"市控","URL":"区域","ADDRESS1":"","ADDRESS2":"","CITY":"","ZIP":""},"geometry":{"type":"Point","coordinates":[115.9850296,39.5956856]}},{"type":"Feature","properties":{"NAME":"东高村","TEL":"市控","URL":"区域","ADDRESS1":"","ADDRESS2":"","CITY":"","ZIP":""},"geometry":{"type":"Point","coordinates":[117.1419573,40.07564769]}},{"type":"Feature","properties":{"NAME":"东四环北路","TEL":"市控","URL":"交通","ADDRESS1":"","ADDRESS2":"","CITY":"","ZIP":""},"geometry":{"type":"Point","coordinates":[116.4830373,39.9389463]}},{"type":"Feature","properties":{"NAME":"西直门北大街","TEL":"市控","URL":"交通","ADDRESS1":"","ADDRESS2":"","CITY":"","ZIP":""},"geometry":{"type":"Point","coordinates":[116.3486676,39.95358215]}}]}