{"type":"FeatureCollection","features":[{"type":"Feature","properties":{"NAME":"香水园街道","TEL":"","URL":"","ADDRESS1":"","ADDRESS2":"","CITY":"延庆","ZIP":""},"geometry":{"type":"Point","coordinates":[115.983458,40.470969]}},{"type":"Feature","properties":{"NAME":"百泉街道","TEL":"","URL":"","ADDRESS1":"","ADDRESS2":"","CITY":"延庆","ZIP":""},"geometry":{"type":"Point","coordinates":[115.970086,40.443889]}},{"type":"Feature","properties":{"NAME":"儒林街道","TEL":"","URL":"","ADDRESS1":"","ADDRESS2":"","CITY":"延庆","ZIP":""},"geometry":{"type":"Point","coordinates":[115.962244,40.453275]}},{"type":"Feature","properties":{"NAME":"延庆镇","TEL":"","URL":"","ADDRESS1":"","ADDRESS2":"","CITY":"延庆","ZIP":""},"geometry":{"type":"Point","coordinates":[115.978478,40.457558]}},{"type":"Feature","properties":{"NAME":"大庄科乡","TEL":"","URL":"","ADDRESS1":"","ADDRESS2":"","CITY":"延庆","ZIP":""},"geometry":{"type":"Point","coordinates":[116.234867,40.429897]}},{"type":"Feature","properties":{"NAME":"千家店镇","TEL":"","URL":"","ADDRESS1":"","ADDRESS2":"","CITY":"延庆","ZIP":""},"geometry":{"type":"Point","coordinates":[116.331367,40.691503]}},{"type":"Feature","properties":{"NAME":"珍珠泉乡","TEL":"","URL":"","ADDRESS1":"","ADDRESS2":"","CITY":"延庆","ZIP":""},"geometry":{"type":"Point","coordinates":[116.418925,40.558714]}},{"type":"Feature","properties":{"NAME":"四海镇","TEL":"","URL":"","ADDRESS1":"","ADDRESS2":"","CITY":"延庆","ZIP":""},"geometry":{"type":"Point","coordinates":[116.407167,40.529989]}},{"type":"Feature","properties":{"NAME":"刘斌堡乡","TEL":"","URL":"","ADDRESS1":"","ADDRESS2":"","CITY":"延庆","ZIP":""},"geometry":{"type":"Point","coordinates":[116.223092,40.568308]}},{"type":"Feature","properties":{"NAME":"永宁镇","TEL":"","URL":"","ADDRESS1":"","ADDRESS2":"","CITY":"延庆","ZIP":""},"geometry":{"type":"Point","coordinates":[116.162244,40.524228]}},{"type":"Feature","properties":{"NAME":"香营乡","TEL":"","URL":"","ADDRESS1":"","ADDRESS2":"","CITY":"延庆","ZIP":""},"geometry":{"type":"Point","coordinates":[116.138892,40.569683]}},{"type":"Feature","properties":{"NAME":"旧县镇","TEL":"","URL":"","ADDRESS1":"","ADDRESS2":"","CITY":"延庆","ZIP":""},"geometry":{"type":"Point","coordinates":[116.0829,40.551711]}},{"type":"Feature","properties":{"NAME":"沈家营镇","TEL":"","URL":"","ADDRESS1":"","ADDRESS2":"","CITY":"延庆","ZIP":""},"geometry":{"type":"Point","coordinates":[116.0393,40.480539]}},{"type":"Feature","properties":{"NAME":"井庄镇","TEL":"","URL":"","ADDRESS1":"","ADDRESS2":"","CITY":"延庆","ZIP":""},"geometry":{"type":"Point","coordinates":[116.086733,40.470406]}},{"type":"Feature","properties":{"NAME":"大榆树镇","TEL":"","URL":"","ADDRESS1":"","ADDRESS2":"","CITY":"延庆","ZIP":""},"geometry":{"type":"Point","coordinates":[116.022883,40.434261]}},{"type":"Feature","properties":{"NAME":"八达岭镇","TEL":"","URL":"","ADDRESS1":"","ADDRESS2":"","CITY":"延庆","ZIP":""},"geometry":{"type":"Point","coordinates":[115.972097,40.360939]}},{"type":"Feature","properties":{"NAME":"康庄镇","TEL":"","URL":"","ADDRESS1":"","ADDRESS2":"","CITY":"延庆","ZIP":""},"geometry":{"type":"Point","coordinates":[115.893781,40.381242]}},{"type":"Feature","properties":{"NAME":"张山营镇","TEL":"","URL":"","ADDRESS1":"","ADDRESS2":"","CITY":"延庆","ZIP":""},"geometry":{"type":"Point","coordinates":[115.8379,40.475644]}},{"type":"Feature","properties":{"NAME":"大孙各庄镇","TEL":"","URL":"","ADDRESS1":"大孙各庄镇大段村村委会","ADDRESS2":"","CITY":"顺义","ZIP":""},"geometry":{"type":"Point","coordinates":[116.908694,40.082556]}},{"type":"Feature","properties":{"NAME":"北务镇","TEL":"","URL":"","ADDRESS1":"北务镇文体活动中心","ADDRESS2":"","CITY":"顺义","ZIP":""},"geometry":{"type":"Point","coordinates":[116.831222,40.071167]}},{"type":"Feature","properties":{"NAME":"李遂镇","TEL":"","URL":"","ADDRESS1":"李遂镇派出所","ADDRESS2":"","CITY":"顺义","ZIP":""},"geometry":{"type":"Point","coordinates":[116.753472,40.097722]}},{"type":"Feature","properties":{"NAME":"仁和镇","TEL":"","URL":"","ADDRESS1":"仁和镇临河村村委会","ADDRESS2":"","CITY":"顺义","ZIP":""},"geometry":{"type":"Point","coordinates":[116.674389,40.086861]}},{"type":"Feature","properties":{"NAME":"石园街道","TEL":"","URL":"","ADDRESS1":"五里仓小区18号楼南侧","ADDRESS2":"","CITY":"顺义","ZIP":""},"geometry":{"type":"Point","coordinates":[116.648778,40.114306]}},{"type":"Feature","properties":{"NAME":"胜利街道","TEL":"","URL":"","ADDRESS1":"建新南区39号楼西侧","ADDRESS2":"","CITY":"顺义","ZIP":""},"geometry":{"type":"Point","coordinates":[116.646556,40.118833]}},{"type":"Feature","properties":{"NAME":"光明街道","TEL":"","URL":"","ADDRESS1":"东兴小区二区13号楼西侧","ADDRESS2":"","CITY":"顺义","ZIP":""},"geometry":{"type":"Point","coordinates":[116.661333,40.130694]}},{"type":"Feature","properties":{"NAME":"旺泉街道","TEL":"","URL":"","ADDRESS1":"西辛南区55号楼东侧","ADDRESS2":"","CITY":"顺义","ZIP":""},"geometry":{"type":"Point","coordinates":[116.636944,40.133611]}},{"type":"Feature","properties":{"NAME":"南彩镇","TEL":"","URL":"","ADDRESS1":"河北村村委会","ADDRESS2":"","CITY":"顺义","ZIP":""},"geometry":{"type":"Point","coordinates":[116.721667,40.130417]}},{"type":"Feature","properties":{"NAME":"杨镇","TEL":"","URL":"","ADDRESS1":"东庞村村委会","ADDRESS2":"","CITY":"顺义","ZIP":""},"geometry":{"type":"Point","coordinates":[116.878528,40.13825]}},{"type":"Feature","properties":{"NAME":"张镇","TEL":"","URL":"","ADDRESS1":"张各庄村村委会","ADDRESS2":"","CITY":"顺义","ZIP":""},"geometry":{"type":"Point","coordinates":[116.945389,40.144444]}},{"type":"Feature","properties":{"NAME":"龙湾屯镇","TEL":"","URL":"","ADDRESS1":"龙湾屯镇政府","ADDRESS2":"","CITY":"顺义","ZIP":""},"geometry":{"type":"Point","coordinates":[116.852194,40.230806]}},{"type":"Feature","properties":{"NAME":"木林镇","TEL":"","URL":"","ADDRESS1":"蒋各庄村村委会","ADDRESS2":"","CITY":"顺义","ZIP":""},"geometry":{"type":"Point","coordinates":[116.777806,40.226389]}},{"type":"Feature","properties":{"NAME":"北小营镇","TEL":"","URL":"","ADDRESS1":"北京汇源食品饮料有限公司","ADDRESS2":"","CITY":"顺义","ZIP":""},"geometry":{"type":"Point","coordinates":[116.729667,40.198944]}},{"type":"Feature","properties":{"NAME":"天竺镇","TEL":"","URL":"","ADDRESS1":"天竺镇政府","ADDRESS2":"","CITY":"顺义","ZIP":""},"geometry":{"type":"Point","coordinates":[116.570722,40.059083]}},{"type":"Feature","properties":{"NAME":"南法信镇","TEL":"","URL":"","ADDRESS1":"东海洪村华联购物中心南侧","ADDRESS2":"","CITY":"顺义","ZIP":""},"geometry":{"type":"Point","coordinates":[116.615444,40.140583]}},{"type":"Feature","properties":{"NAME":"后沙峪镇","TEL":"","URL":"","ADDRESS1":"后沙峪武装部","ADDRESS2":"","CITY":"顺义","ZIP":""},"geometry":{"type":"Point","coordinates":[116.542833,40.112]}},{"type":"Feature","properties":{"NAME":"李桥镇","TEL":"","URL":"","ADDRESS1":"李家桥村（综合维稳中心）","ADDRESS2":"","CITY":"顺义","ZIP":""},"geometry":{"type":"Point","coordinates":[116.666917,40.04275]}},{"type":"Feature","properties":{"NAME":"马坡镇","TEL":"","URL":"","ADDRESS1":"毛家营村委会西侧","ADDRESS2":"","CITY":"顺义","ZIP":""},"geometry":{"type":"Point","coordinates":[116.60675,40.185556]}},{"type":"Feature","properties":{"NAME":"牛栏山镇","TEL":"","URL":"","ADDRESS1":"牛栏山镇政府","ADDRESS2":"","CITY":"顺义","ZIP":""},"geometry":{"type":"Point","coordinates":[116.6485,40.20925]}},{"type":"Feature","properties":{"NAME":"赵全营镇","TEL":"","URL":"","ADDRESS1":"郎中工业园北京富来盈洗车设备有限公司东侧","ADDRESS2":"","CITY":"顺义","ZIP":""},"geometry":{"type":"Point","coordinates":[116.546806,40.205028]}},{"type":"Feature","properties":{"NAME":"北石槽镇","TEL":"","URL":"","ADDRESS1":"北石槽镇行政服务中心","ADDRESS2":"","CITY":"顺义","ZIP":""},"geometry":{"type":"Point","coordinates":[116.534444,40.248333]}},{"type":"Feature","properties":{"NAME":"高丽营镇","TEL":"","URL":"","ADDRESS1":"东马各庄村委会","ADDRESS2":"","CITY":"顺义","ZIP":""},"geometry":{"type":"Point","coordinates":[116.562222,40.135]}},{"type":"Feature","properties":{"NAME":"双丰街道","TEL":"","URL":"","ADDRESS1":"马坡花园一区物业公司","ADDRESS2":"","CITY":"顺义","ZIP":""},"geometry":{"type":"Point","coordinates":[116.648694,40.17375]}},{"type":"Feature","properties":{"NAME":"空港街道","TEL":"","URL":"","ADDRESS1":"空港街道办","ADDRESS2":"","CITY":"顺义","ZIP":""},"geometry":{"type":"Point","coordinates":[116.549583,40.100444]}}]}